incountry_rank,country,location,score,latitude,longitude
0,Afghanistan,"Kabul, Afghanistan",7,34.5553494,69.207486
1,Afghanistan,"Kandahar, Afghanistan",3,31.628871,65.7371749
2,Afghanistan,"Lashkar Gah, Helmand, Afghanistan",2,31.6095648,64.4082082
3,Afghanistan,"Jalalabad, Afghanistan",1,34.4283529,70.45780189999999
4,Afghanistan,"Herat, Afghanistan",1,34.352865,62.20402869999999
5,Afghanistan,"Charkh, Logar, Afghanistan",1,33.7969439,68.93458520000001
6,Afghanistan,"Bamyan, Afghanistan",1,34.8100067,67.8212104
0,Albania,"Tirana, Albania",46,41.3275459,19.8186982
1,Albania,"Vlore, Albania",1,40.4660668,19.491356
2,Albania,"Peja, Albania",1,42.6592868,20.2887358
0,Algeria,"Algiers, Algeria",281,36.753768,3.0587561
1,Algeria,"Constantine, Algeria",122,36.3570052,6.639028199999999
2,Algeria,"Blida, Algeria",46,36.4735715,2.8323153
3,Algeria,"Bejaia, Algeria",43,36.7515258,5.055683699999999
4,Algeria,"Oran, Algeria",42,35.6987388,-0.6349319
5,Algeria,"Annaba, Algeria",37,36.9142081,7.742667300000001
6,Algeria,"Setif, Algeria",36,36.1897593,5.4107984
7,Algeria,"Batna, Algeria",35,35.5634192,6.1889996
8,Algeria,"Tlemcen, Algeria",29,34.8828864,-1.3166815
9,Algeria,"Djelfa, Algeria",19,34.6703956,3.2503761
10,Algeria,"Tizi Ouzou, Algeria",19,36.713548,4.0473075
11,Algeria,"Mascara, Algeria",19,35.4020988,0.1400257
12,Algeria,"Biskra, Algeria",18,34.8449437,5.7248567
13,Algeria,"Tebessa, Algeria",18,35.4010797,8.1172958
14,Algeria,"Tiaret, Algeria",18,35.3708689,1.3217852
15,Algeria,"Bordj Bou Arreridj, Algeria",16,36.0739925,4.7630271
16,Algeria,"Chlef, Algeria",15,36.1579664,1.3372823
17,Algeria,"Ouargla, Algeria",14,31.9527411,5.3335348
18,Algeria,"Mostaganem, Algeria",14,35.9311454,0.0909413999999999
19,Algeria,"Msila, Algeria",14,35.7186646,4.523342299999999
20,Algeria,"Boumerdes, Algeria",14,36.7510697,3.4788905
21,Algeria,"Ain Defla, Algeria",10,36.2509429,1.9393815
22,Algeria,"Bouira, Algeria",10,36.3691846,3.900619399999999
23,Algeria,"Oum El Bouaghi, Algeria",10,35.8688789,7.110826599999999
24,Algeria,"Sidi Bel Abbes, Algeria",10,35.2105876,-0.629983
25,Algeria,"Ghardaia, Algeria",9,32.4943741,3.64446
26,Algeria,"Laghouat, Algeria",9,33.8078341,2.8628294
27,Algeria,"Tipasa, Algeria",8,36.5906719,2.4433723
28,Algeria,"Jijel, Algeria",7,36.8210144,5.7634126
29,Algeria,"Khemis Miliana, Algeria",6,36.2609828,2.2343578
30,Algeria,"Saida, Algeria",6,34.8415207,0.1456055
31,Algeria,"El Tarf, Algeria",4,36.7576678,8.3076343
32,Algeria,"El Alia, Algeria",4,33.1403736,5.5950663
33,Algeria,"Guelma, Algeria",3,36.4627444,7.4330833
34,Algeria,"Bechar, Algeria",3,31.6238098,-2.2162443
35,Algeria,"El Oued, Algeria",3,33.367811,6.8516511
36,Algeria,"Skikda, Algeria",2,36.8662658,6.9062556
37,Algeria,"Nezla, Touggourt, Algeria",2,33.0666138,6.0309459
38,Algeria,"Khenchela, Algeria",2,35.4269404,7.1460155
39,Algeria,"Souk Ahras, Algeria",1,36.2801062,7.938403299999999
40,Algeria,"Naama, Algeria",1,33.2667317,-0.3128659
41,Algeria,"Adrar, Algeria",1,28.0174403,-0.2642497
42,Algeria,"Bourmadia, Relizane, Algeria",1,35.7092845,0.5754372999999999
0,Andorra,"St Julia De Loria, Andorra",5,42.4529631,1.4918235
0,Angola,"Luanda, Angola",18,-8.8146556,13.2301756
1,Angola,"Huambo, Angola",8,-12.7739761,15.7468535
2,Angola,"Uige, Angola",6,-7.173673200000001,15.4068079
3,Angola,"Lubango, Angola",4,-14.9186136,13.5321234
4,Angola,"Sumbe, Angola",2,-11.2122554,13.8477121
0,Argentina,"Buenos Aires, DF, Argentina",2983,-34.6036844,-58.3815591
1,Argentina,"Cordoba, Cordoba, Argentina",1066,-31.42008329999999,-64.1887761
2,Argentina,"La Plata, Buenos Aires, Argentina",543,-34.9204948,-57.95356570000001
3,Argentina,"Rosario, Santa Fe, Argentina",540,-32.9587022,-60.69304159999999
4,Argentina,"San Miguel De Tucuman, Tucuman, Argentina",491,-26.8082848,-65.2175903
5,Argentina,"Corrientes, Corrientes, Argentina",319,-27.4692131,-58.8306349
6,Argentina,"Mendoza, Gobierno De Men, Argentina",314,-32.8894587,-68.8458386
7,Argentina,"Mar Del Plata, Buenos Aires, Argentina",275,-38.0054771,-57.5426106
8,Argentina,"San Carlos De Bariloche, Rio Negro, Argentina",252,-41.1334722,-71.3102778
9,Argentina,"Bahia Blanca, Buenos Aires, Argentina",200,-38.7183177,-62.2663478
10,Argentina,"Santa Fe, Santa Fe, Argentina",191,-31.6106578,-60.697294
11,Argentina,"Balcarce, Buenos Aires, Argentina",143,-37.8464067,-58.25545839999999
12,Argentina,"Rio Cuarto, Cordoba, Argentina",126,-33.1231585,-64.3493441
13,Argentina,"San Luis, San Luis, Argentina",90,-33.3017267,-66.3377522
14,Argentina,"Chascomus, Buenos Aires, Argentina",87,-35.5776723,-58.0136464
15,Argentina,"Salta, Salta, Argentina",81,-24.7821269,-65.4231976
16,Argentina,"Puerto Madryn, Chubut, Argentina",72,-42.76362169999999,-65.03483109999999
17,Argentina,"Esperanza, Santa Fe, Argentina",51,-31.4489859,-60.93036629999999
18,Argentina,"Pergamino, Buenos Aires, Argentina",46,-33.8912831,-60.5745999
19,Argentina,"Trelew, Chubut, Argentina",41,-43.2493016,-65.30763510000001
20,Argentina,"San Juan Bosco, Comodoro Rivada, Argentina",40,-45.8656149,-67.4822429
21,Argentina,"Esquel, Chubut, Argentina",35,-42.9095281,-71.31431169999999
22,Argentina,"Ushuaia, Tierra Del Fuego, Argentina",35,-54.8019121,-68.3029511
23,Argentina,"Posadas, Misiones, Argentina",32,-27.3621374,-55.90087459999999
24,Argentina,"Santa Rosa, La Pampa, Argentina",28,-36.620922,-64.2912369
25,Argentina,"San Pedro, Buenos Aires, Argentina",26,-33.6757835,-59.66286640000001
26,Argentina,"Rivadavia, San Juan, Argentina",24,-31.5294819,-68.59405579999999
27,Argentina,"Azul, Buenos Aires, Argentina",21,-36.7749672,-59.8540382
28,Argentina,"Lujan, Buenos Aires, Argentina",18,-34.5633312,-59.1208805
29,Argentina,"Entre Rios, Concordia, Argentina",18,-31.3730029,-58.0133328
30,Argentina,"Rio Gallegos, Santa Cruz, Argentina",17,-51.6230485,-69.2168291
31,Argentina,"Anillaco, La Rioja, Argentina",16,-28.8064359,-66.94143869999999
32,Argentina,"La Rioja, La Rioja, Argentina",16,-29.4134538,-66.8564579
33,Argentina,"San Salvador De Jujuy, Jujuy, Argentina",14,-24.1857864,-65.2994767
34,Argentina,"Diamante, Entre Rios, Argentina",12,-32.0697098,-60.63787079999999
35,Argentina,"Venado Tuerto, Santa Fe, Argentina",12,-33.7455566,-61.9690161
36,Argentina,"San Fernando Valle Catamarca, Catamarca, Argentina",10,-28.469581,-65.7795441
37,Argentina,"La Consulta, Mendoza, Argentina",10,-33.7339291,-69.1199066
38,Argentina,"Oro Verde, Entre Rios, Argentina",10,-31.8239453,-60.51904949999999
39,Argentina,"Tandil, Buenos Aires, Argentina",10,-37.3287999,-59.1367167
40,Argentina,"Hilario Ascasubi, Argentina",10,-39.3752234,-62.6465704
41,Argentina,"Montecarlo, Misiones, Argentina",9,-26.5716167,-54.7413116
42,Argentina,"Famailla, Tucuman, Argentina",9,-27.0560551,-65.40216830000001
43,Argentina,"Tres Arroyos, Argentina",9,-38.3775437,-60.27522949999999
44,Argentina,"Santiago Del Estero, Santiago Del Estero, Argentina",8,-27.7833574,-64.264167
45,Argentina,"Neuquen, Rio Negro, Argentina",7,-37.7359374381485,-69.38217911958529
46,Argentina,"Puerto Iguazu, Misiones, Argentina",7,-25.5971635,-54.578599
47,Argentina,"Gen Roca, Rio Negro, Argentina",7,-39.032803,-67.5892227
48,Argentina,"Bella Vista, Corrientes, Argentina",6,-28.5066193,-59.04225529999999
49,Argentina,"Marcos Juarez, Argentina",6,-32.6978556,-62.10579789999999
50,Argentina,"Viedma, Rio Negro, Argentina",6,-40.8119087,-62.9962044
51,Argentina,"El Colorado, Formosa, Argentina",5,-26.3055199,-59.37129299999999
52,Argentina,"Villa Mercedes, San Luis, Argentina",5,-33.6754417,-65.45806879999999
53,Argentina,"Cinco Saltos, Rio Negro, Argentina",5,-38.8313555,-68.0566936
54,Argentina,"Rafaela, Santa Fe, Argentina",4,-31.2525979,-61.49164219999999
55,Argentina,"Anguil, La Pampa, Argentina",4,-36.5290206,-64.0128026
56,Argentina,"Cerro Azul, Misiones, Argentina",4,-27.6349423,-55.49706430000001
57,Argentina,"Valle Inferior Rio Negro, Rio Negro, Argentina",4,-40.00988417743898,-65.39272061835581
58,Argentina,"Z Llaudllol, CP, Argentina",4,-38.416097,-63.61667199999999
59,Argentina,"Chilecito, La Rioja, Argentina",4,-29.1611279,-67.49620159999999
60,Argentina,"Manfredi, Argentina",3,-31.8447763,-63.7470618
61,Argentina,"Villa Maria, Argentina",3,-32.4104614,-63.24364499999999
62,Argentina,"Chamical, La Rioja, Argentina",2,-30.361165,-66.3140926
63,Argentina,"Saenz Pena, Chaco, Argentina",2,-26.8004428,-60.4312354
64,Argentina,"Aimogasta, La Rioja, Argentina",2,-28.5507672,-66.8151707
65,Argentina,"San Rafael, Mendoza, Argentina",2,-34.6128922,-68.3390622
66,Argentina,"San Martin, Mendoza, Argentina",2,-33.0806497,-68.47057
67,Argentina,"Concepcion Del Uruguay, Entre Rios, Argentina",2,-32.4845349,-58.2321416
68,Argentina,"Chacabuco, San Luis, Argentina",2,-32.7312467,-65.19073089999999
69,Argentina,"El Bolson, Rio Negro, Argentina",2,-41.9649235,-71.5353386
70,Argentina,"San Francisco, Argentina",1,-31.42499919999999,-62.0841599
71,Argentina,"Villa Regina, Rio Negro, Argentina",1,-39.1017633,-67.0878881
72,Argentina,"Casbas, Argentina",1,-36.7590314,-62.50177829999999
73,Argentina,"Gobernador Ferre, Corrientes, Argentina",1,-30.0047478,-59.5230871
74,Argentina,"Mercedes, Corrientes, Argentina",1,-29.184582,-58.07357189999999
75,Argentina,"San Martin, San Juan, Argentina",1,-31.5378744,-68.0954459
76,Argentina,"Cachi, Argentina",1,-25.1202353,-66.1624965
77,Argentina,"Gen Villegas, Argentina",1,-35.0326402,-63.01484170000001
78,Argentina,"San Julian, Santa Cruz, Argentina",1,-49.3068942,-67.72982480000002
79,Argentina,"Yuto, Jujuy, Argentina",1,-23.6427652,-64.47189949999999
80,Argentina,"Villa De Merlo, San Luis, Argentina",1,-32.3478326,-65.0157565
81,Argentina,"Los Antiguos, Santa Cruz, Argentina",1,-46.548735,-71.6286831
82,Argentina,"Junin, Argentina",1,-34.5885499,-60.94955400000001
83,Argentina,"Colonia Yenta, Entre Rios, Argentina",1,-32.5175643,-59.1041758
84,Argentina,"Buenos Aires, Rio Negro, Argentina",1,-40.7344343,-66.6176455
85,Argentina,"Colonia Yerua, Entre Rios, Argentina",1,-31.4705865,-58.26447519999999
86,Argentina,"Reconquista, Santa Fe, Argentina",1,-29.1448193,-59.64352419999999
87,Argentina,"Miramar, Argentina",1,-38.2703168,-57.8394498
88,Argentina,"Casilda, Argentina",1,-33.044522,-61.1650211
89,Argentina,"San Ramon Nueva Oran, Salta, Argentina",1,-23.128383,-64.3216987
90,Argentina,"Olavarria, Argentina",1,-36.8937167,-60.32334989999999
91,Argentina,"Gualeguaychu, Argentina",1,-33.0077778,-58.5111667
92,Argentina,"Quimili, Santiago Del Estero, Argentina",1,-27.6450219,-62.4134894
93,Argentina,"Luis Beltran, Rio Negro, Argentina",1,-39.3131462,-65.75952699999999
94,Argentina,"Carlos Pellegrini, Santa Fe, Argentina",1,-32.0504446,-61.7828879
0,Armenia,"Yerevan, Armenia",76,40.1872023,44.515209
0,Australia,"Crawley, WA, Australia",5393,-31.9752145,115.8213483
1,Australia,"Brisbane, Qld, Australia",3108,-27.4704528,153.0260341
2,Australia,"Canberra, ACT, Australia",3067,-35.2801903,149.1310038
3,Australia,"Melbourne, Vic, Australia",2817,-37.8136276,144.9630576
4,Australia,"Adelaide, SA, Australia",2609,-34.9284989,138.6007456
5,Australia,"Sydney, NSW, Australia",1797,-33.8688197,151.2092955
6,Australia,"Hobart, Tas, Australia",1263,-42.8826055,147.3257196
7,Australia,"Wagga Wagga, NSW, Australia",493,-35.1025977,147.3655103
8,Australia,"Penrith, NSW, Australia",486,-33.7506759,150.687674
9,Australia,"Camden, NSW, Australia",365,-34.0659551,150.6935958
10,Australia,"Toowoomba, Qld, Australia",329,-27.5598212,151.9506696
11,Australia,"Armidale, NSW, Australia",316,-30.5035714,151.6523371
12,Australia,"Lismore, NSW, Australia",272,-28.80943079999999,153.287891
13,Australia,"Darwin, NT, Australia",215,-12.4637333,130.8444446
14,Australia,"Callaghan, NSW, Australia",214,-32.8941482,151.7068833
15,Australia,"Horsham, Vic, Australia",208,-36.7166715,142.1996597
16,Australia,"Wollongong, NSW, Australia",181,-34.4248336,150.8931132
17,Australia,"Gatton, Qld, Australia",176,-27.5570725,152.2769644
18,Australia,"Townsville, Qld, Australia",171,-19.2589635,146.8169483
19,Australia,"Maroochydore, Qld, Australia",167,-26.6520957,153.0826248
20,Australia,"Cairns, Qld, Australia",160,-16.9203476,145.7709529
21,Australia,"Creswick, Vic, Australia",125,-37.4194312,143.8947368
22,Australia,"Narrabri, NSW, Australia",124,-30.3205203,149.7819951
23,Australia,"Warwick, Qld, Australia",108,-28.2137979,152.0306591
24,Australia,"Geelong, Vic, Australia",91,-38.1492994,144.3598426
25,Australia,"Orange, NSW, Australia",81,-33.2815802,149.0862242
26,Australia,"Kings Meadows, Tas, Australia",76,-41.4690796,147.1611718
27,Australia,"Tamworth, NSW, Australia",68,-31.09003839999999,150.9293323
28,Australia,"Rockhampton, Qld, Australia",67,-23.3786203,150.5088889
29,Australia,"Burnie, Tas, Australia",67,-41.0522881,145.904988
30,Australia,"Albany, WA, Australia",64,-35.0268148,117.8837114
31,Australia,"Southport, Qld, Australia",59,-27.9718794,153.4063059
32,Australia,"Merbein, Vic, Australia",52,-34.1679896,142.0585016
33,Australia,"Albury, NSW, Australia",45,-36.0751193,146.9094852
34,Australia,"Ourimbah, NSW, Australia",44,-33.3464222,151.3707807
35,Australia,"Mareeba, Qld, Australia",41,-16.9973592,145.423065
36,Australia,"Hamilton, Vic, Australia",39,-37.7420251,142.0216734
37,Australia,"Ulverstone, Tas, Australia",35,-41.1571006,146.1774247
38,Australia,"Atherton, Qld, Australia",34,-17.2666843,145.4768687
39,Australia,"Northam, WA, Australia",34,-31.6539634,116.6619872
40,Australia,"Bunbury, WA, Australia",31,-33.3270366,115.6408605
41,Australia,"Yanco, NSW, Australia",30,-34.60330709999999,146.4098305
42,Australia,"Bundaberg, Qld, Australia",27,-24.8661024,152.3488923
43,Australia,"Tatura, Vic, Australia",26,-36.4400613,145.2260066
44,Australia,"Pinjarra, WA, Australia",25,-32.6298522,115.8734939
45,Australia,"South Johnstone, Qld, Australia",22,-17.5987724,145.9949161
46,Australia,"Woodford, Qld, Australia",21,-26.952616,152.777174
47,Australia,"Alice Springs, NT, Australia",20,-23.698042,133.8807471
48,Australia,"Roseworthy, SA, Australia",17,-34.5341167,138.7468836
49,Australia,"Gympie, Qld, Australia",15,-26.1836445,152.6623743
50,Australia,"Rutherglen, Vic, Australia",14,-36.055556,146.4625
51,Australia,"Manjimup, WA, Australia",12,-34.2432496,116.1454595
52,Australia,"Esperance, WA, Australia",11,-33.8613953,121.8912724
53,Australia,"Westbury, Tas, Australia",10,-41.52616159999999,146.8331855
54,Australia,"Bathurst, NSW, Australia",10,-33.4111857,149.578693
55,Australia,"Bendigo, Vic, Australia",9,-36.75961960000001,144.2785764
56,Australia,"Coffs Harbour, NSW, Australia",9,-30.2962013,153.1138924
57,Australia,"Clare, SA, Australia",9,-33.8359101,138.6142379
58,Australia,"Kununurra, WA, Australia",8,-15.7783483,128.7439001
59,Australia,"Mt Gambier, SA, Australia",8,-37.8256039,140.7712393
60,Australia,"Cowra, NSW, Australia",8,-33.8346839,148.6911799
61,Australia,"Ayr, Qld, Australia",8,-19.5744451,147.4066109
62,Australia,"Loxton, SA, Australia",8,-34.4512008,140.5697699
63,Australia,"Mackay, Qld, Australia",8,-21.1433971,149.1868281
64,Australia,"Warrnambool, Vic, Australia",7,-38.3720954,142.4777782
65,Australia,"Katherine, NT, Australia",7,-14.4519683,132.2698623
66,Australia,"Griffith, NSW, Australia",7,-34.2886639,146.0323982
67,Australia,"Werribee, Vic, Australia",7,-37.8997995,144.6641401
68,Australia,"Kingaroy, Qld, Australia",7,-26.539756,151.843129
69,Australia,"Tully, Qld, Australia",6,-17.934081,145.923241
70,Australia,"Merredin, WA, Australia",6,-31.483215,118.2833224
71,Australia,"Jindabyne, NSW, Australia",6,-36.4172451,148.6248294
72,Australia,"Minnipa, SA, Australia",6,-32.8540733,135.1551297
73,Australia,"Geraldton, WA, Australia",5,-28.7761346,114.611295
74,Australia,"Narrogin, WA, Australia",5,-32.9310079,117.1781532
75,Australia,"Naracoorte, SA, Australia",5,-36.9569884,140.7417779
76,Australia,"Condobolin, NSW, Australia",5,-33.0884693,147.1473483
77,Australia,"Biloela, Qld, Australia",5,-24.4025351,150.5124322
78,Australia,"Ellinbank, Vic, Australia",5,-38.2593565,145.9192973
79,Australia,"Wee Waa, NSW, Australia",5,-30.2244213,149.4391935
80,Australia,"Trangie, NSW, Australia",4,-32.0333806,147.9816442
81,Australia,"Bowen, Qld, Australia",4,-20.0121024,148.246279
82,Australia,"Merimbula, NSW, Australia",4,-36.8879208,149.9063882
83,Australia,"Healesville, Vic, Australia",4,-37.6540738,145.5168476
84,Australia,"Churchill, Vic, Australia",4,-38.3126247,146.4197913
85,Australia,"Harwood Isl, NSW, Australia",3,-29.4168813,153.244462
86,Australia,"Dookie, Vic, Australia",3,-36.3292252,145.6849661
87,Australia,"Gladstone, Qld, Australia",3,-23.8415948,151.2497708
88,Australia,"Robinvale, Vic, Australia",3,-34.5866578,142.7764604
89,Australia,"Lord Howe Isl, NSW, Australia",3,-31.5553263,159.0821211
90,Australia,"Myocum, NSW, Australia",3,-28.606693,153.5088431
91,Australia,"Charters Towers, Qld, Australia",3,-20.0769637,146.2601362
92,Australia,"Currency Creek, SA, Australia",3,-35.45303639999999,138.7621887
93,Australia,"Stanthorpe, Qld, Australia",3,-28.6551515,151.9344707
94,Australia,"Vasse, WA, Australia",2,-33.6757449,115.251371
95,Australia,"Port Lincoln, SA, Australia",2,-34.7226381,135.8597449
96,Australia,"Canberra, NSW, Australia",2,-31.2532183,146.921099
97,Australia,"Grafton, NSW, Australia",2,-29.681468,152.9381272
98,Australia,"Renmark, SA, Australia",2,-34.1753513,140.7455129
99,Australia,"Narromine, NSW, Australia",2,-32.2328429,148.2394429
100,Australia,"Donald, Vic, Australia",2,-36.3691221,142.9807653
101,Australia,"Macknade, Qld, Australia",2,-18.5772254,146.2587596
102,Australia,"Mt Tomah, NSW, Australia",2,-33.5415323,150.4222128
103,Australia,"Nowra, NSW, Australia",2,-34.8870504,150.6005142
104,Australia,"Portland, Vic, Australia",2,-38.3380167,141.6041331
105,Australia,"Meadows, Tas, Australia",2,-42.0409059,146.8087322
106,Australia,"Kojonup, Australia",1,-33.831004,117.1590354
107,Australia,"Llanelly, Vic, Australia",1,-36.7329002,143.8567795
108,Australia,"Le Trobe, Vic, Australia",1,-38.15806973484955,146.7822962641962
109,Australia,"Bruce, Qld, Australia",1,-22.05359,149.4887834
110,Australia,"Nhulunbuy, NT, Australia",1,-12.1835392,136.7860989
111,Australia,"Katanning, WA, Australia",1,-33.6893674,117.555118
112,Australia,"Gunnedah, NSW, Australia",1,-30.97943189999999,150.2565037
113,Australia,"Port Augusta, SA, Australia",1,-32.4935661,137.7743496
114,Australia,"Broken Hill, NSW, Australia",1,-31.9595859,141.4608138
115,Australia,"Barcaldine, Qld, Australia",1,-23.5559218,145.2882741
116,Australia,"Goulburn, NSW, Australia",1,-34.7567489,149.713629
117,Australia,"Maryborough, Vic, Australia",1,-37.0483491,143.7353612
118,Australia,"Jerilderie, Australia",1,-35.3564281,145.7292848
119,Australia,"Cape Ferguson, Qld, Australia",1,-19.2833333,147.0666667
120,Australia,"Wyndham, WA, Australia",1,-15.4869106,128.1221866
121,Australia,"Young, NSW, Australia",1,-34.3134008,148.2979356
122,Australia,"Westmere, Vic, Australia",1,-37.6905897,142.93794
123,Australia,"Long Pocket, Qld, Australia",1,-18.5184596,146.0014392
124,Australia,"Bunga, NSW, Australia",1,-36.5414632,150.05576
125,Australia,"Longreach, Qld, Australia",1,-23.4403125,144.2506199
126,Australia,"Brandon, MB, Australia",1,-25.274398,133.775136
127,Australia,"Tanilba Bay, NSW, Australia",1,-32.73717,151.9983453
128,Australia,"Lockhart, NSW, Australia",1,-35.2214842,146.7187779
129,Australia,"Umbrae, SA, Australia",1,-30.0002315,136.2091547
130,Australia,"Mulwala, NSW, Australia",1,-35.9864644,146.0043042
131,Australia,"Coorow, WA, Australia",1,-29.8817859,116.0227422
132,Australia,"Woorim, Qld, Australia",1,-27.0699706,153.2033436
133,Australia,"York, WA, Australia",1,-31.8748896,116.7692532
134,Australia,"Coonawarra, SA, Australia",1,-37.2916268,140.8336276
135,Australia,"Southern Cross, WA, Australia",1,-31.22746399999999,119.3243665
136,Australia,"Cooktown, Qld, Australia",1,-15.4758164,145.2470981
137,Australia,"Castlemaine, Vic, Australia",1,-37.06328999999999,144.2172327
138,Australia,"Gloucester, NSW, Australia",1,-32.0244571,151.9534009
139,Australia,"Stanley, Vic, Australia",1,-36.4048858,146.7552885
140,Australia,"Bairnsdale, Vic, Australia",1,-37.8366265,147.5993569
141,Australia,"Taree, NSW, Australia",1,-31.8888549,152.4439724
142,Australia,"Lakes Entrance, Vic, Australia",1,-37.8777465,147.9941435
143,Australia,"Maryborough, Qld, Australia",1,-25.5384947,152.7034191
144,Australia,"Orbost, Australia",1,-37.6975525,148.4572112
145,Australia,"Karratha, WA, Australia",1,-20.7336955,116.8447057
146,Australia,"Forbes, NSW, Australia",1,-33.3844596,148.0080975
147,Australia,"Dudley West, SA, Australia",1,-35.7552428,137.9077992
148,Australia,"Mt Molloy, Qld, Australia",1,-16.6756069,145.3300746
149,Australia,"Mt Isa, Qld, Australia",1,-20.7263687,139.4930159
150,Australia,"Aireys Inlet, Vic, Australia",1,-38.4571048,144.1071845
151,Australia,"Maddingley, Vic, Australia",1,-37.6874566,144.4184012
152,Australia,"Emerald, Qld, Australia",1,-23.5242747,148.1582907
153,Australia,"Boulder, WA, Australia",1,-30.7818811,121.4885929
154,Australia,"Goondiwindi, Qld, Australia",1,-28.5424479,150.3012655
155,Australia,"Yarram, Vic, Australia",1,-38.5651486,146.6756928
156,Australia,"Dubbo, NSW, Australia",1,-32.2443908,148.614418
0,Austria,"Vienna, Austria",2559,48.2081743,16.3738189
1,Austria,"Innsbruck, Austria",566,47.2692124,11.4041024
2,Austria,"Graz, Austria",413,47.070714,15.439504
3,Austria,"Tulln, Austria",252,48.3314949,16.060737
4,Austria,"Salzburg, Austria",214,47.80949,13.05501
5,Austria,"Seibersdorf, Austria",62,47.9585806,16.5160138
6,Austria,"Linz, Austria",51,48.30694,14.28583
7,Austria,"Krems, Austria",12,48.40999,15.60384
8,Austria,"Klagenfurt, Austria",4,46.6364598,14.3122246
9,Austria,"Reichersberg, Austria",3,48.3365616,13.3602963
10,Austria,"Leoben, Austria",3,47.37639,15.09113
11,Austria,"Irdning Donnersbachtal, Austria",3,47.5049833,14.1029562
12,Austria,"Kundl, Austria",2,47.469849,11.9857169
13,Austria,"Zwettl, Austria",2,48.6058353,15.1662692
14,Austria,"Zams, Austria",2,47.15758630000001,10.5894458
15,Austria,"Riedlingsdorf, Austria",2,47.34670819999999,16.134206
16,Austria,"Lunz Am See, Austria",1,47.8598408,15.0305202
17,Austria,"Horn, Austria",1,48.66607,15.65716
18,Austria,"Villach, Austria",1,46.60856,13.85062
19,Austria,"Bad Goisern, Austria",1,47.6462201,13.6158884
20,Austria,"Neunkirchen, Austria",1,47.72607,16.08121
0,Azerbaijan,"Baku, Azerbaijan",93,40.40926169999999,49.8670924
1,Azerbaijan,"Quba, Azerbaijan",1,41.3643024,48.5260928
2,Azerbaijan,"Lankaran, Azerbaijan",1,38.7528669,48.8475015
3,Azerbaijan,"Ganja, Azerbaijan",1,40.6878581,46.3723313
4,Azerbaijan,"Nakhchivan, Azerbaijan",1,39.2009126,45.4082269
0,Bahamas,"Nassau, Bahamas",4,25.0443312,-77.3503609
1,Bahamas,"Marsh Harbour, Abaco Island, Bahamas",2,26.5241653,-77.09098089999999
2,Bahamas,"Eleuthera, Bahamas",1,24.9314461,-76.18996609999999
0,Bahrain,"Manama, Bahrain",3,26.2235305,50.5875935
0,Bangladesh,"Dhaka, Bangladesh",694,23.810332,90.4125181
1,Bangladesh,"Mymensingh, Bangladesh",175,24.7471492,90.4202734
2,Bangladesh,"Rajshahi, Bangladesh",79,24.3745146,88.60416599999999
3,Bangladesh,"Dinajpur, Bangladesh",72,25.6279123,88.63317579999999
4,Bangladesh,"Khulna, Bangladesh",48,22.845641,89.5403279
5,Bangladesh,"Chittagong, Bangladesh",46,22.356851,91.7831819
6,Bangladesh,"Sylhet, Bangladesh",44,24.8949294,91.8687063
7,Bangladesh,"Ishwardi, Bangladesh",20,24.1292024,89.0657027
8,Bangladesh,"Jashore, Bangladesh",16,23.1634014,89.2181664
9,Bangladesh,"Patuakhali, Bangladesh",12,22.2248632,90.4547503
10,Bangladesh,"Kushtia, Bangladesh",9,23.9087767,89.12198219999999
11,Bangladesh,"Dumki, Bangladesh",9,22.4643855,90.3849441
12,Bangladesh,"Noakhali, Bangladesh",7,22.8246384,91.1017334
13,Bangladesh,"Jamalpur, Bangladesh",5,24.9249785,89.9463408
14,Bangladesh,"Gopalganj, Bangladesh",5,23.0130139,89.8224054
15,Bangladesh,"Rangpur, Bangladesh",5,25.7438916,89.275227
16,Bangladesh,"Barisal, Bangladesh",3,22.7010021,90.35345110000002
17,Bangladesh,"Chapainawabganj, Bangladesh",3,24.7413111,88.29120689999999
18,Bangladesh,"Bogra, Bangladesh",3,24.848078,89.3729633
19,Bangladesh,"Srimangal, Moulvibazar, Bangladesh",2,24.3064554,91.7296439
20,Bangladesh,"Rangamati, Bangladesh",2,22.6533198,92.1788581
21,Bangladesh,"Gaibandha, Bangladesh",2,25.3296928,89.54296520000001
22,Bangladesh,"Cumilla, Bangladesh",2,23.4606574,91.1809065
23,Bangladesh,"Sonagazi, Feni, Bangladesh",1,22.8491219,91.3915948
24,Bangladesh,"Panchagrah, Bangladesh",1,26.2708705,88.59517509999999
25,Bangladesh,"Madaripur, Bangladesh",1,23.2393346,90.1869644
0,Barbados,"Bridgetown, Barbados",15,13.1059816,-59.61317409999999
0,Belarus,"Minsk, Belarus",142,53.9006011,27.558972
1,Belarus,"Samochvalovichi, Belarus",5,54.02989299999999,28.0907324
2,Belarus,"Vitebsk, Belarus",4,55.1926809,30.206359
3,Belarus,"Grodno, Belarus",2,53.6687634,23.8222673
4,Belarus,"Brest, Belarus",1,52.0996507,23.7636662
5,Belarus,"Gomel, Belarus",1,52.4313388,30.99367
0,Belgium,"Ghent, Belgium",3635,51.0500182,3.7303351
1,Belgium,"Louvain, Belgium",1827,50.8822871,4.7137645
2,Belgium,"Brussels, Belgium",1087,50.8476424,4.3571696
3,Belgium,"Antwerp, Belgium",693,51.2213404,4.4051485
4,Belgium,"Liege, Belgium",474,50.63295859999999,5.569749799999999
5,Belgium,"Gembloux, Belgium",472,50.5600392,4.6919813
6,Belgium,"Diepenbeek, Belgium",151,50.9088864,5.4197659
7,Belgium,"Mol, Belgium",91,51.1872257,5.1154096
8,Belgium,"Geraardsbergen, Belgium",52,50.7715168,3.8822568
9,Belgium,"Rumbeke, Belgium",29,50.9332448,3.1560374
10,Belgium,"Mons, Belgium",26,50.45466340000001,3.952313499999999
11,Belgium,"Arlon, Belgium",15,49.6855173,5.8104435
12,Belgium,"Hoogstraten, Belgium",10,51.4015935,4.7615606
13,Belgium,"Warcoing, Belgium",7,50.7043825,3.343983600000001
14,Belgium,"Brugge, Belgium",5,51.2091807,3.2247552
15,Belgium,"Libramont, Belgium",2,49.9213714,5.3775094
0,Belize,"Punta Gorda, Belize",8,16.098935,-88.80949059999999
1,Belize,"San Ignacio, Belize",4,17.1522786,-89.0800227
0,Benin,"Cotonou, Benin",332,6.3702928,2.3912362
1,Benin,"Dassa Zoume, Benin",23,7.784908700000001,2.1990763
2,Benin,"Parakou, Benin",21,9.3466822,2.6090043
3,Benin,"Ketou, Benin",12,7.3603376,2.6040436
4,Benin,"Pobe, Benin",7,6.9832415,2.6636066
5,Benin,"Porto Novo, Benin",4,6.4968574,2.6288523
6,Benin,"Allada, Benin",1,6.664462899999999,2.1597595
7,Benin,"Sakete, Benin",1,6.7368274,2.6636066
0,Bermuda,"Ferry Reach, Bermuda",4,32.3665024,-64.7036474
0,Bhutan,"Thimphu, Bhutan",21,27.4712216,89.6339041
1,Bhutan,"Gelephu, Bhutan",2,26.8725114,90.4927134
2,Bhutan,"Tsirang, Bhutan",2,27.032207,90.1869644
3,Bhutan,"Mongar, Bhutan",1,27.2753739,91.23977750000002
4,Bhutan,"Trashigang, Bhutan",1,27.3325014,91.5523435
0,Bolivia,"La Paz, Bolivia",111,-16.489689,-68.11929359999999
1,Bolivia,"Cochabamba, Bolivia",43,-17.4139766,-66.1653224
2,Bolivia,"Santa Cruz, Bolivia",28,-17.8145819,-63.1560853
3,Bolivia,"Sucre, Bolivia",6,-19.035345,-65.2592128
4,Bolivia,"Riberalta, Bolivia",4,-11.0073376,-66.058249
5,Bolivia,"Trinidad, Beni, Bolivia",4,-14.8321487,-64.9019015
6,Bolivia,"Tarija, Bolivia",2,-21.5177889,-64.72956669999999
7,Bolivia,"Carmen Pampa, Bolivia",1,-16.2611093,-67.694537
8,Bolivia,"Ixiamas, Bolivia",1,-13.7698639,-68.1252555
9,Bolivia,"Tumupasa, Provincia Abel, Bolivia",1,-14.152047,-67.8867858
10,Bolivia,"Apillapampa, Bolivia",1,-17.8617216,-66.25711319999999
0,Bosnia and Herzegovina,"Sarajevo, Bosnia and Herzegovina",79,43.8562586,18.4130763
1,Bosnia and Herzegovina,"Banja Luka, Bosnia and Herzegovina",40,44.7721811,17.191
2,Bosnia and Herzegovina,"Mostar, Bosnia and Herzegovina",9,43.34377480000001,17.8077578
3,Bosnia and Herzegovina,"Tuzla, Bosnia and Herzegovina",3,44.53746109999999,18.6734688
4,Bosnia and Herzegovina,"Milici, Bosnia and Herzegovina",2,44.1660267,19.0775332
5,Bosnia and Herzegovina,"Bosanska Krupa, Bosnia and Herzegovina",1,44.8806524,16.153208
6,Bosnia and Herzegovina,"Gradiska, Bosnia and Herzegovina",1,45.1469213,17.2546844
7,Bosnia and Herzegovina,"Brcko Diskrit, Brcko, Bosnia and Herzegovina",1,44.8726563,18.8106276
0,Botswana,"Gaborone, Botswana",89,-24.6282079,25.9231471
1,Botswana,"Maun, Botswana",14,-19.9952622,23.4180769
2,Botswana,"Palapye, Botswana",8,-22.5514872,27.1147095
3,Botswana,"Mmadinare, Botswana",2,-21.88106,27.751381
4,Botswana,"Kanye, Botswana",1,-24.988061,25.3430203
5,Botswana,"Sebele, Francistown, Botswana",1,-21.1661005,27.5143603
6,Botswana,"Ghanzi, Botswana",1,-21.6960991,21.6481861
0,Brazil,"Sao Paulo, SP, Brazil",2387,-23.5557714,-46.6395571
1,Brazil,"Vicosa, MG, Brazil",1775,-20.7561451,-42.8800278
2,Brazil,"Campinas, SP, Brazil",1660,-22.9099384,-47.0626332
3,Brazil,"Rio De Janeiro, RJ, Brazil",1496,-22.9068467,-43.1728965
4,Brazil,"Porto Alegre, RS, Brazil",1269,-30.0368176,-51.2089887
5,Brazil,"Brasilia, Distrito Federal, Brazil",1229,-15.7975154,-47.89188739999999
6,Brazil,"Piracicaba, SP, Brazil",1224,-22.7342864,-47.6480644
7,Brazil,"Recife, PE, Brazil",969,-8.0577401,-34.8829629
8,Brazil,"Fortaleza, Ceara, Brazil",798,-3.7327203,-38.5270134
9,Brazil,"Curitiba, Parana, Brazil",766,-25.4372382,-49.2699727
10,Brazil,"Belo Horizonte, MG, Brazil",765,-19.919052,-43.9386685
11,Brazil,"Lavras, MG, Brazil",715,-21.2398506,-44.9983535
12,Brazil,"Florianopolis, SC, Brazil",709,-27.5948036,-48.5569286
13,Brazil,"Londrina, Parana, Brazil",604,-23.3197305,-51.1662008
14,Brazil,"Botucatu, SP, Brazil",542,-22.8873233,-48.444658
15,Brazil,"Ribeirao Preto, SP, Brazil",511,-21.1694018,-47.8110855
16,Brazil,"Maringa, Parana, Brazil",489,-23.4209995,-51.9330558
17,Brazil,"Goiania, Go, Brazil",484,-16.6868912,-49.2647943
18,Brazil,"Manaus, Amazonas, Brazil",435,-3.1190275,-60.0217314
19,Brazil,"Campos Dos Goytacazes, RJ, Brazil",418,-21.7614561,-41.3167841
20,Brazil,"Santa Maria, RS, Brazil",405,-29.68949839999999,-53.7923441
21,Brazil,"Rio Claro, SP, Brazil",402,-22.4107652,-47.5596215
22,Brazil,"Belem, Para, Brazil",326,-1.4563432,-48.501299
23,Brazil,"Cruz Das Almas, BA, Brazil",321,-12.6718752,-39.1039317
24,Brazil,"Campo Grande, MS, Brazil",309,-20.4648517,-54.6218477
25,Brazil,"Araraquara, SP, Brazil",308,-21.7790843,-48.1792643
26,Brazil,"Pelotas, RS, Brazil",296,-31.7699685,-52.3312971
27,Brazil,"Uberlandia, MG, Brazil",293,-18.9127749,-48.2755227
28,Brazil,"Sao Carlos, SP, Brazil",279,-22.0123357,-47.8908108
29,Brazil,"Ilheus, BA, Brazil",247,-14.7981287,-39.0346984
30,Brazil,"Salvador, BA, Brazil",245,-12.9777334,-38.501648
31,Brazil,"Jaboticabal, SP, Brazil",234,-21.2553986,-48.3204453
32,Brazil,"Feira De Santana, BA, Brazil",221,-12.2535848,-38.9600762
33,Brazil,"Sao Cristovao, SE, Brazil",220,-11.0119175,-37.2075563
34,Brazil,"Seropedica, RJ, Brazil",212,-22.7472448,-43.69957590000001
35,Brazil,"Cuiaba, MT, Brazil",212,-15.5954142,-56.0925824
36,Brazil,"Dourados, MS, Brazil",211,-22.2236054,-54.812498
37,Brazil,"Petrolina, PE, Brazil",180,-9.3994602,-40.5023565
38,Brazil,"Juiz De Fora, MG, Brazil",178,-21.7623932,-43.3434669
39,Brazil,"Natal, RN, Brazil",174,-5.7841695,-35.1999708
40,Brazil,"Joao Pessoa, Paraiba, Brazil",153,-7.118835199999999,-34.8814339
41,Brazil,"Teresina, PI, Brazil",147,-5.096124199999999,-42.8023065
42,Brazil,"Passo Fundo, RS, Brazil",137,-28.2622601,-52.41027949999999
43,Brazil,"Crato, CE, Brazil",132,-7.229957199999999,-39.4122984
44,Brazil,"Alfenas, MG, Brazil",130,-21.4245173,-45.9470205
45,Brazil,"Itajai, SC, Brazil",128,-26.9082782,-48.67751089999999
46,Brazil,"Campina Grande, PB, Brazil",120,-7.2206167,-35.8888328
47,Brazil,"Alegre, ES, Brazil",116,-20.7624643,-41.53165140000001
48,Brazil,"Vitoria, ES, Brazil",110,-20.3196644,-40.3384748
49,Brazil,"Ponta Grossa, PR, Brazil",107,-25.0995752,-50.1583959
50,Brazil,"Sete Lagoas, MG, Brazil",105,-19.4646696,-44.24525269999999
51,Brazil,"Rio Verde, Go, Brazil",103,-17.7927647,-50.9195819
52,Brazil,"Maceio, AL, Brazil",97,-9.6660417,-35.7352167
53,Brazil,"Ouro Preto, MG, Brazil",97,-20.402211,-43.5105574
54,Brazil,"Sao Luis, MA, Brazil",89,-2.5306721,-44.2988947
55,Brazil,"Montes Claros, MG, Brazil",86,-16.7291552,-43.8670745
56,Brazil,"Areia, PB, Brazil",86,-6.9685016,-35.702865
57,Brazil,"Bento Goncalves, RS, Brazil",85,-29.1667089,-51.5169861
58,Brazil,"Umuarama, PR, Brazil",82,-23.7627286,-53.3119989
59,Brazil,"Itabuna, BA, Brazil",79,-14.7916229,-39.2833243
60,Brazil,"Lages, SC, Brazil",76,-27.8178873,-50.3264204
61,Brazil,"Planaltina, Distrito Federal, Brazil",64,-15.4670022,-47.58649639999999
62,Brazil,"Mossoro, RN, Brazil",64,-5.1919109,-37.3423886
63,Brazil,"Sao Mateus, ES, Brazil",63,-18.716613,-39.8558783
64,Brazil,"Boa Vista, RR, Brazil",59,2.8206339,-60.6737553
65,Brazil,"Ilha Solteira, SP, Brazil",53,-20.4279737,-51.3448365
66,Brazil,"Diamantina, MG, Brazil",50,-18.2441852,-43.598022
67,Brazil,"Caxias Do Sul, RS, Brazil",50,-29.1740137,-51.1812032
68,Brazil,"Jatai, Go, Brazil",47,-17.8881027,-51.7263895
69,Brazil,"Cascavel, Parana, Brazil",47,-24.9541715,-53.480283
70,Brazil,"Presidente Prudente, SP, Brazil",46,-22.1207836,-51.38731989999999
71,Brazil,"Blumenau, SC, Brazil",45,-26.9165792,-49.0717331
72,Brazil,"Sao Vicente, SP, Brazil",44,-23.9603221,-46.3968784
73,Brazil,"Rio Grande, RS, Brazil",44,-32.0407893,-52.1016953
74,Brazil,"Santarem, PA, Brazil",43,-2.4406918,-54.7136192
75,Brazil,"Itabaiana, Sergipe, Brazil",41,-10.685559,-37.4330473
76,Brazil,"Pato Branco, PR, Brazil",40,-26.229188,-52.6696111
77,Brazil,"Macapa, Amapa, Brazil",40,0.0405217,-51.0560957
78,Brazil,"Lajeado, RS, Brazil",40,-29.4606538,-51.9679052
79,Brazil,"Sao Jose Dos Campos, SP, Brazil",39,-23.2198396,-45.8915658
80,Brazil,"Chapadao Do Sul, MS, Brazil",39,-18.7959941,-52.6196308
81,Brazil,"Bauru, SP, Brazil",38,-22.3155297,-49.0708221
82,Brazil,"Franca, SP, Brazil",37,-20.5394551,-47.4010979
83,Brazil,"Curitibanos, SC, Brazil",37,-27.2928761,-50.5750228
84,Brazil,"Sao Jose Do Rio Preto, SP, Brazil",37,-20.8127115,-49.376521
85,Brazil,"Assis, SP, Brazil",37,-22.6616691,-50.4184358
86,Brazil,"Guarapuava, PR, Brazil",36,-25.3888586,-51.4612553
87,Brazil,"Garanhuns, PE, Brazil",34,-8.8908798,-36.4964777
88,Brazil,"Nova Xavantina, MT, Brazil",34,-14.6768999,-52.3532892
89,Brazil,"Chapeco, SC, Brazil",33,-27.0952662,-52.6169899
90,Brazil,"Palmas, Tocantins, Brazil",33,-10.249091,-48.32428580000001
91,Brazil,"Sorocaba, SP, Brazil",31,-23.4709096,-47.4851438
92,Brazil,"Gurupi, TO, Brazil",30,-11.7244438,-49.0613827
93,Brazil,"Sinop, MT, Brazil",30,-11.8543783,-55.5102602
94,Brazil,"Rio Branco, AC, Brazil",26,-9.9740249,-67.8098191
95,Brazil,"Porto Velho, RO, Brazil",25,-8.7635576,-63.89717040000001
96,Brazil,"Divinopolis, MG, Brazil",24,-20.1435294,-44.89040620000001
97,Brazil,"Uberaba, MG, Brazil",24,-19.7460372,-47.9339936
98,Brazil,"Sobral, Ceara, Brazil",24,-3.6844057,-40.35617939999999
99,Brazil,"Tangara Da Serra, MT, Brazil",24,-14.6197344,-57.4875157
100,Brazil,"Alta Floresta, MT, Brazil",24,-9.868177,-56.0835241
101,Brazil,"Sao Gabriel, RS, Brazil",23,-30.3349487,-54.320338
102,Brazil,"Macae, RJ, Brazil",23,-22.3772253,-41.7830141
103,Brazil,"Paragominas, Para, Brazil",23,-2.9912935,-47.3536209
104,Brazil,"Rondonopolis, MT, Brazil",22,-16.4654757,-54.6387229
105,Brazil,"Vacaria, RS, Brazil",22,-28.5038986,-50.93722229999999
106,Brazil,"Parnaiba, PI, Brazil",22,-2.9096093,-41.7537178
107,Brazil,"Sao Joaquim, SC, Brazil",22,-28.2913034,-49.9366324
108,Brazil,"Tubarao, SC, Brazil",22,-28.4818875,-49.0058727
109,Brazil,"Arapiraca, AL, Brazil",21,-9.7555596,-36.6639697
110,Brazil,"Sao Joao Del Rei, MG, Brazil",21,-21.1362111,-44.2576421
111,Brazil,"Rio Paranaiba, MG, Brazil",21,-19.1980409,-46.2368621
112,Brazil,"Barreiras, BA, Brazil",20,-12.1477483,-44.9953475
113,Brazil,"Corumba, MS, Brazil",20,-19.0051788,-57.6527913
114,Brazil,"Urutai, Go, Brazil",20,-17.464328,-48.2020805
115,Brazil,"Vitoria Da Conquista, BA, Brazil",20,-14.8619237,-40.8445346
116,Brazil,"Bom Jesus, PI, Brazil",20,-9.0716878,-44.3593408
117,Brazil,"Caceres, MT, Brazil",19,-16.0873856,-57.6754995
118,Brazil,"Tupa, SP, Brazil",19,-21.9329598,-50.5075944
119,Brazil,"Catalao, Go, Brazil",19,-18.1660958,-47.9444845
120,Brazil,"Braganca Paulista, SP, Brazil",19,-22.9531705,-46.5423239
121,Brazil,"Patos De Minas, MG, Brazil",19,-18.5961683,-46.5150076
122,Brazil,"Anapolis, Go, Brazil",18,-16.328546,-48.95340299999999
123,Brazil,"Registro, SP, Brazil",18,-24.4952364,-47.845595
124,Brazil,"Lorena, SP, Brazil",18,-22.7348827,-45.1183782
125,Brazil,"Santa Teresa, ES, Brazil",18,-19.9320354,-40.5999111
126,Brazil,"Marechal Candido Rodondo, PR, Brazil",18,-24.5564468,-54.0578679
127,Brazil,"Criciuma, SC, Brazil",17,-28.6774759,-49.3704155
128,Brazil,"Morrinhos, Go, Brazil",17,-17.7354025,-49.1114407
129,Brazil,"Imperatriz, MA, Brazil",17,-5.5237633,-47.4761951
130,Brazil,"Toledo, Parana, Brazil",16,-24.7227347,-53.74082569999999
131,Brazil,"Vitoria De Santo Antao, PE, Brazil",16,-8.117325,-35.2976353
132,Brazil,"Itapetinga, BA, Brazil",15,-15.252267,-40.2561995
133,Brazil,"Paulo Afonso, BA, Brazil",15,-9.4000616,-38.2176411
134,Brazil,"Marilia, SP, Brazil",14,-22.2175968,-49.9487485
135,Brazil,"Cacador, SC, Brazil",14,-26.7829927,-50.9980996
136,Brazil,"Janauba, MG, Brazil",14,-15.8009305,-43.30941869999999
137,Brazil,"Cruz Alta, RS, Brazil",14,-28.6440117,-53.6064638
138,Brazil,"Bebedouro, SP, Brazil",13,-20.9318346,-48.49424279999999
139,Brazil,"Pirassununga, SP, Brazil",13,-21.9968309,-47.42524030000001
140,Brazil,"Serra Talhada, PE, Brazil",13,-7.982044500000001,-38.2897492
141,Brazil,"Florestal, MG, Brazil",13,-19.8876626,-44.4331986
142,Brazil,"Ituporanga, SC, Brazil",12,-27.4146478,-49.60098370000001
143,Brazil,"Bandeirantes, PR, Brazil",12,-23.1087401,-50.3675343
144,Brazil,"Guanambi, BA, Brazil",12,-14.2193381,-42.7796907
145,Brazil,"Luis Eduardo Magalhaes, BA, Brazil",12,-12.0806624,-45.7786578
146,Brazil,"Palotina, PR, Brazil",12,-24.2832442,-53.8399872
147,Brazil,"Aracruz, ES, Brazil",12,-19.8244169,-40.267044
148,Brazil,"Quixada, Ceara, Brazil",12,-4.9684385,-39.0161259
149,Brazil,"Tres Lagoas, MS, Brazil",12,-20.7881843,-51.7030845
150,Brazil,"Frederico Westphalen, RS, Brazil",11,-27.3587196,-53.3993835
151,Brazil,"Venda Nova Do Imigrante, ES, Brazil",11,-20.3325486,-41.1295988
152,Brazil,"Goias, Go, Brazil",11,-15.7050424,-49.36531489999999
153,Brazil,"Humaita, AM, Brazil",11,-7.5169609,-63.0298508
154,Brazil,"Araguaina, Tocantins, Brazil",11,-7.191563299999999,-48.2094801
155,Brazil,"Dois Vizinhos, PR, Brazil",11,-25.7511034,-53.0606298
156,Brazil,"Buri, SP, Brazil",11,-23.7985871,-48.5972847
157,Brazil,"Alagoinhas, BA, Brazil",11,-12.1339689,-38.4211223
158,Brazil,"Barra Do Garcas, MT, Brazil",10,-15.8916202,-52.2618826
159,Brazil,"Juina, Mato Grosso, Brazil",10,-11.4228527,-58.7571771
160,Brazil,"Foz Do Iguacu, PR, Brazil",10,-25.5163356,-54.58537639999999
161,Brazil,"Monte Carmelo, MG, Brazil",10,-18.7269675,-47.49563389999999
162,Brazil,"Dracena, SP, Brazil",10,-21.4877762,-51.5375562
163,Brazil,"Chapadinha, MA, Brazil",9,-3.7415256,-43.360096
164,Brazil,"Votuporanga, SP, Brazil",9,-20.4182603,-49.9762563
165,Brazil,"Primavera Do Leste, MT, Brazil",9,-15.5570854,-54.2974513
166,Brazil,"Aquidauana, MS, Brazil",9,-20.4593271,-55.7818482
167,Brazil,"Itajuba, MG, Brazil",9,-22.4247429,-45.4601323
168,Brazil,"Mogi Das Cruzes, SP, Brazil",9,-23.5217272,-46.1860048
169,Brazil,"Senhor Do Bonfim, BA, Brazil",9,-10.4614397,-40.1867729
170,Brazil,"Ituiutaba, MG, Brazil",9,-18.9745738,-49.4600885
171,Brazil,"Lagarto, Sergipe, Brazil",8,-10.9167572,-37.6691776
172,Brazil,"Santa Catarina, SC, Brazil",8,-26.928572,-49.36531489999999
173,Brazil,"Pombal, Paraiba, Brazil",8,-6.771290700000001,-37.7977348
174,Brazil,"Braganca, Para, Brazil",8,-1.0570112,-46.7662901
175,Brazil,"Joinville, SC, Brazil",8,-26.3043758,-48.84637439999999
176,Brazil,"Bage, RS, Brazil",8,-31.3332251,-54.1065079
177,Brazil,"Jequie, BA, Brazil",8,-13.8590592,-40.0837763
178,Brazil,"Santa Helena, PR, Brazil",8,-24.8590708,-54.3344718
179,Brazil,"Videira, SC, Brazil",8,-27.0052075,-51.15439500000001
180,Brazil,"Tres Coracoes, MG, Brazil",8,-21.6973293,-45.2562592
181,Brazil,"Uruguaiana, RS, Brazil",8,-29.7584058,-57.0863393
182,Brazil,"Itaqui, RS, Brazil",7,-29.1282237,-56.5552712
183,Brazil,"Sertao, RS, Brazil",7,-27.986019,-52.257335
184,Brazil,"Ipameri, Go, Brazil",7,-17.7199562,-48.1591052
185,Brazil,"Altamira, PA, Brazil",7,-3.204353,-52.2079135
186,Brazil,"Muzambinho, MG, Brazil",7,-21.3673586,-46.5230158
187,Brazil,"Pinheiro, MA, Brazil",7,-2.5176485,-45.0797032
188,Brazil,"Bambui, MG, Brazil",7,-20.0170955,-45.9795138
189,Brazil,"Unai, MG, Brazil",7,-16.3647325,-46.89200710000001
190,Brazil,"Cruzeiro Do Sul, AC, Brazil",7,-7.636856099999999,-72.6702068
191,Brazil,"Parauapebas, Para, Brazil",7,-6.0687275,-49.9035717
192,Brazil,"Rio Tinto, Paraiba, Brazil",7,-6.807966899999999,-35.0767189
193,Brazil,"Floriano, PI, Brazil",7,-6.7812705,-43.0233615
194,Brazil,"Apucarana, Parana, Brazil",6,-23.5525322,-51.4638893
195,Brazil,"Erechim, RS, Brazil",6,-27.6347491,-52.2747035
196,Brazil,"Cerro Largo, RS, Brazil",6,-28.1470699,-54.7301886
197,Brazil,"Estreito, Maranhao, Brazil",6,-6.5599025,-47.4446726
198,Brazil,"Linhares, ES, Brazil",6,-19.3990502,-40.0653505
199,Brazil,"Colatina, ES, Brazil",6,-19.5368995,-40.6307885
200,Brazil,"Ijui, RS, Brazil",6,-28.3891409,-53.9220126
201,Brazil,"Iturama, MG, Brazil",6,-19.7270345,-50.1938389
202,Brazil,"Castanhal, Para, Brazil",6,-1.2935408,-47.9245897
203,Brazil,"Cuite, Paraiba, Brazil",6,-6.485126699999999,-36.1548259
204,Brazil,"Castro, PR, Brazil",6,-24.8054533,-49.9979898
205,Brazil,"Jundiai, SP, Brazil",6,-23.1856528,-46.8892222
206,Brazil,"Itacoatiara, Amazonas, Brazil",6,-3.135021,-58.438544
207,Brazil,"Maraba, PA, Brazil",6,-5.3671133,-49.1230982
208,Brazil,"Taubate, SP, Brazil",5,-23.024996,-45.5638792
209,Brazil,"Porto Nacional, TO, Brazil",5,-10.7069499,-48.4125873
210,Brazil,"Gama, Distrito Federal, Brazil",5,-16.0160682,-48.0682555
211,Brazil,"Nova Andradina, MS, Brazil",5,-22.2478003,-53.3481093
212,Brazil,"Codo, MA, Brazil",5,-4.4535444,-43.8877885
213,Brazil,"Ararangua, SC, Brazil",5,-28.9370964,-49.4840256
214,Brazil,"Barueri, SP, Brazil",5,-23.5035117,-46.8785468
215,Brazil,"Santo Augusto, RS, Brazil",5,-27.8508886,-53.7763232
216,Brazil,"Ibiruba, RS, Brazil",5,-28.6307855,-53.09557849999999
217,Brazil,"Coxim, MS, Brazil",5,-18.50424,-54.7464921
218,Brazil,"Pindorama, SP, Brazil",5,-21.1867409,-48.9081184
219,Brazil,"Barretos, SP, Brazil",5,-20.5723019,-48.56765619999999
220,Brazil,"Teofilo Otoni, MG, Brazil",5,-17.8608479,-41.5089708
221,Brazil,"Paranavai, Parana, Brazil",5,-23.0818946,-52.4624412
222,Brazil,"Petropolis, RJ, Brazil",5,-22.5112498,-43.1779306
223,Brazil,"Juruti, PA, Brazil",5,-2.1633411,-56.0952985
224,Brazil,"Francisco Beltrao, PR, Brazil",5,-26.0811184,-53.0531381
225,Brazil,"Mogi Mirim, SP, Brazil",5,-22.4314429,-46.9569108
226,Brazil,"Laranjeiras Do Sul, PR, Brazil",5,-25.402082,-52.4129456
227,Brazil,"Navirai, MS, Brazil",4,-23.0621519,-54.2018113
228,Brazil,"Nova Iguacu, RJ, Brazil",4,-22.759464,-43.44950499999999
229,Brazil,"Aracatuba, SP, Brazil",4,-21.206685,-50.438747
230,Brazil,"Concordia, SC, Brazil",4,-27.2304111,-52.02612629999999
231,Brazil,"Picos, PI, Brazil",4,-7.0842108,-41.4707971
232,Brazil,"Capanema, Para, Brazil",4,-1.1922171,-47.1788727
233,Brazil,"Ipora, Go, Brazil",4,-16.4423996,-51.1189651
234,Brazil,"Uniao Da Vitoria, PR, Brazil",4,-26.221887,-51.08518290000001
235,Brazil,"Dianopolis, TO, Brazil",4,-11.6259869,-46.8201674
236,Brazil,"Santa Cruz Do Sul, RS, Brazil",4,-29.7240867,-52.4361042
237,Brazil,"Ji Parana, Rondonia, Brazil",4,-10.8724473,-61.95928869999999
238,Brazil,"Taua, Ceara, Brazil",4,-6.0032698,-40.2946389
239,Brazil,"Porto Seguro, BA, Brazil",4,-16.4443537,-39.0653656
240,Brazil,"Pocos De Caldas, MG, Brazil",4,-21.7853787,-46.5619303
241,Brazil,"Irati, PR, Brazil",4,-25.4775609,-50.6489356
242,Brazil,"Aguas Lindas, Go, Brazil",4,-15.7442236,-48.2795007
243,Brazil,"Nossa Senhora Da Gloria, SE, Brazil",4,-10.2156554,-37.4212807
244,Brazil,"Rolim De Moura, Rondonia, Brazil",4,-11.7256983,-61.77814089999999
245,Brazil,"Joacaba, SC, Brazil",4,-27.1743773,-51.5054475
246,Brazil,"Ibatiba, ES, Brazil",4,-20.2349041,-41.5107931
247,Brazil,"Canarana, MT, Brazil",4,-13.5563987,-52.2691482
248,Brazil,"Rorainopolis, RR, Brazil",4,0.9439589,-60.4297743
249,Brazil,"Teixeira De Freitas, BA, Brazil",4,-17.5400307,-39.7421813
250,Brazil,"Posse, Go, Brazil",4,-14.0943212,-46.365947
251,Brazil,"Tome Acu, PA, Brazil",4,-2.4203332,-48.15121449999999
252,Brazil,"Imbe, RS, Brazil",4,-29.9759028,-50.1275443
253,Brazil,"Lucas Do Rio Verde, MT, Brazil",4,-13.0764296,-55.9093949
254,Brazil,"Matao, SP, Brazil",4,-21.6012678,-48.36135669999999
255,Brazil,"Paraguacu Paulista, SP, Brazil",4,-22.4136881,-50.576987
256,Brazil,"Cachoeira Do Sul, RS, Brazil",4,-30.0337419,-52.8943161
257,Brazil,"Itubera, BA, Brazil",3,-13.7352913,-39.1464519
258,Brazil,"Arraial Do Cabo, RJ, Brazil",3,-22.9667613,-42.0277716
259,Brazil,"Jau, SP, Brazil",3,-22.3023754,-48.5723053
260,Brazil,"Tres Rios, RJ, Brazil",3,-22.1151109,-43.208747
261,Brazil,"Quirinopolis, Go, Brazil",3,-18.4495743,-50.4510812
262,Brazil,"Caetite, BA, Brazil",3,-14.0648657,-42.48588669999999
263,Brazil,"Barra, BA, Brazil",3,-11.0897262,-43.1391246
264,Brazil,"Itapetininga, SP, Brazil",3,-23.5818554,-48.0317589
265,Brazil,"Iguatu, CE, Brazil",3,-6.3587958,-39.29805899999999
266,Brazil,"Jales, SP, Brazil",3,-20.2686874,-50.5490441
267,Brazil,"Maracaju, MS, Brazil",3,-21.6303816,-55.15961170000001
268,Brazil,"Inconfidentes, MG, Brazil",3,-22.3173539,-46.3255461
269,Brazil,"Cachoeiro Do Itapemirim, ES, Brazil",3,-20.8517991,-41.1148627
270,Brazil,"Redencao, Ceara, Brazil",3,-4.2238924,-38.730315
271,Brazil,"Limoeiro Do Norte, Ceara, Brazil",3,-5.1467293,-38.0964766
272,Brazil,"Espirito Santo, ES, Brazil",3,-19.1834229,-40.3088626
273,Brazil,"Amajari, RR, Brazil",3,3.6542857,-61.4191455
274,Brazil,"Medianeira, PR, Brazil",3,-25.2947528,-54.0934686
275,Brazil,"Carpina, PE, Brazil",3,-7.8435039,-35.2502744
276,Brazil,"Muriae, MG, Brazil",3,-21.1291403,-42.3702252
277,Brazil,"Capao Bonito, SP, Brazil",3,-24.0022492,-48.3466312
278,Brazil,"Frutal, MG, Brazil",3,-20.0263494,-48.9362703
279,Brazil,"Januaria, MG, Brazil",3,-15.4887575,-44.3620074
280,Brazil,"Oriximina, Para, Brazil",3,-1.7607276,-55.8629258
281,Brazil,"Sao Vicente Do Sul, RS, Brazil",3,-29.6929583,-54.6786262
282,Brazil,"Sao Miguel Do Oeste, SC, Brazil",3,-26.725999,-53.5204071
283,Brazil,"Palmas, PR, Brazil",3,-26.478873,-51.9957893
284,Brazil,"Urupema, SC, Brazil",3,-27.9545386,-49.8766717
285,Brazil,"Pedro Afonso, TO, Brazil",3,-8.975519499999999,-48.1736365
286,Brazil,"Dom Pedrito, RS, Brazil",3,-30.9826873,-54.6734219
287,Brazil,"Alegrete, RS, Brazil",3,-29.7837672,-55.7936527
288,Brazil,"Balsas, MA, Brazil",3,-7.5335065,-46.0406425
289,Brazil,"Santo Angelo, RS, Brazil",3,-28.3001866,-54.26583170000001
290,Brazil,"Veranopolis, RS, Brazil",3,-28.93509049999999,-51.549789
291,Brazil,"Itaperuna, RJ, Brazil",3,-21.2037367,-41.8912637
292,Brazil,"Governor Valadares, MG, Brazil",3,-18.8558333,-41.95718979999999
293,Brazil,"Crateus, Ce, Brazil",3,-5.17808,-40.6696229
294,Brazil,"Rio Grande do Sul, RS, Brazil",3,-29.3646459,-51.6657692
295,Brazil,"Eunapolis, BA, Brazil",2,-16.3751025,-39.5881125
296,Brazil,"Cornelio Procopio, PR, Brazil",2,-23.1853407,-50.648509
297,Brazil,"Ituverava, SP, Brazil",2,-20.3358968,-47.7909635
298,Brazil,"Belo Oriente, MG, Brazil",2,-19.2216614,-42.48676589999999
299,Brazil,"Mucuri, BA, Brazil",2,-18.0833977,-39.5499731
300,Brazil,"Cacoal, Rondonia, Brazil",2,-11.4319111,-61.45485389999999
301,Brazil,"Timoteo, Brazil",2,-19.5815903,-42.6475633
302,Brazil,"Reconcavo Bahiano, Bahia, Brazil",2,-11.4098737,-41.2808577
303,Brazil,"Euclides Da Cunha, BA, Brazil",2,-10.5078999,-39.0147815
304,Brazil,"Palmeira Dos Indios, AL, Brazil",2,-9.4120373,-36.6322917
305,Brazil,"Jaru, RO, Brazil",2,-10.4283629,-62.4736737
306,Brazil,"Barbacena, MG, Brazil",2,-21.2219897,-43.77244870000001
307,Brazil,"Domingos Martins, ES, Brazil",2,-20.3625703,-40.6582081
308,Brazil,"Sao Roque, SP, Brazil",2,-23.5298156,-47.13740019999999
309,Brazil,"Sorriso, MT, Brazil",2,-12.5407358,-55.72265969999999
310,Brazil,"Piranhas, AL, Brazil",2,-9.6112521,-37.7616537
311,Brazil,"Sao Sebastiao Do Paraiso, MG, Brazil",2,-20.9188537,-46.984882
312,Brazil,"Coari, Amazonas, Brazil",2,-4.0912575,-63.1483782
313,Brazil,"Bacabal, Maranhao, Brazil",2,-4.2310701,-44.780044
314,Brazil,"Campo Mourao, Parana, Brazil",2,-24.0437988,-52.3810674
315,Brazil,"Barra Mansa, RJ, Brazil",2,-22.5408519,-44.1772604
316,Brazil,"Pouso Alegre, MG, Brazil",2,-22.2270778,-45.93937160000001
317,Brazil,"Corrente, Piaui, Brazil",2,-10.4391469,-45.1657331
318,Brazil,"San Antonio De Goias, Go, Brazil",2,-15.8266416,-49.1358998
319,Brazil,"Paulistana, PI, Brazil",2,-8.1355265,-41.1435468
320,Brazil,"Santa Cruz, RN, Brazil",2,-6.2261856,-36.021248
321,Brazil,"Nao Me Toque, RS, Brazil",2,-28.460032,-52.82085559999999
322,Brazil,"Passos, MG, Brazil",2,-20.7221434,-46.6133353
323,Brazil,"Santana, BA, Brazil",2,-12.9796039,-44.0511036
324,Brazil,"Ceres, Go, Brazil",2,-15.309784,-49.6010078
325,Brazil,"Sume, PB, Brazil",2,-7.671448799999999,-36.87822
326,Brazil,"Urucui, PI, Brazil",2,-7.2408683,-44.5539857
327,Brazil,"Rio Pomba, MG, Brazil",2,-21.2737893,-43.1789037
328,Brazil,"Tefe, Amazonas, Brazil",2,-3.3473698,-64.7091998
329,Brazil,"Cassilandia, MS, Brazil",2,-19.1156308,-51.7351229
330,Brazil,"Sao Joao Da Barra, RJ, Brazil",2,-21.6267746,-41.0192315
331,Brazil,"Cafelandia, PR, Brazil",2,-24.6172041,-53.3230879
332,Brazil,"Brejo Santo, Ceara, Brazil",2,-7.488440600000001,-38.9877226
333,Brazil,"Campo Novo Do Parecis, MT, Brazil",2,-13.6637567,-57.8886057
334,Brazil,"Corumba, MG, Brazil",2,-20.4001653,-44.68704260000001
335,Brazil,"Edmundo Gaievski, Parana, Brazil",2,-25.7771913,-53.538664
336,Brazil,"Campos Belos, Go, Brazil",2,-13.0370837,-46.7722996
337,Brazil,"Machado, MG, Brazil",2,-21.6803986,-45.919
338,Brazil,"Manhuacu, MG, Brazil",2,-20.2560957,-42.0334316
339,Brazil,"Matinhos, PR, Brazil",2,-25.8220868,-48.5403663
340,Brazil,"Princesa Isabel, Paraiba, Brazil",2,-7.736212999999999,-37.9916986
341,Brazil,"Tailandia, SA, Brazil",2,-2.9381477,-48.951083
342,Brazil,"Maragogi, AL, Brazil",2,-9.0127163,-35.22139540000001
343,Brazil,"Campo Verde, MT, Brazil",2,-15.5454465,-55.16545259999999
344,Brazil,"Jaguaribe, CE, Brazil",2,-5.8927263,-38.6219897
345,Brazil,"Abaetetuba, PA, Brazil",2,-1.722624,-48.88017989999999
346,Brazil,"Resende, RJ, Brazil",1,-22.4722561,-44.4649211
347,Brazil,"Valenca, RJ, Brazil",1,-22.2449114,-43.7022996
348,Brazil,"Catole Do Rocha, PB, Brazil",1,-6.3478413,-37.7459981
349,Brazil,"Santa Rosa Do Sul, Brazil",1,-29.1376656,-49.7156567
350,Brazil,"Sao Lourenco Da Mat, PE, Brazil",1,-22.1176614,-45.0528089
351,Brazil,"Curvelo, MG, Brazil",1,-18.7703442,-44.4299477
352,Brazil,"Amargosa, BA, Brazil",1,-13.0297377,-39.6020802
353,Brazil,"Seo Raimundo Nonato, PI, Brazil",1,-9.0151562,-42.6886131
354,Brazil,"Camacari, BA, Brazil",1,-12.7001932,-38.325345
355,Brazil,"Taquaritinga, SP, Brazil",1,-21.4011199,-48.5086726
356,Brazil,"Pesqueira, PE, Brazil",1,-8.3568043,-36.69686710000001
357,Brazil,"Una, BA, Brazil",1,-15.2950448,-39.07612280000001
358,Brazil,"Sao Borja, RS, Brazil",1,-28.659954,-56.0065719
359,Brazil,"Jacarezinho, PR, Brazil",1,-23.1593295,-49.9717654
360,Brazil,"Caracarai, Roraima, Brazil",1,1.822514,-61.1265436
361,Brazil,"Sao Raimundo Das Mangabe, MA, Brazil",1,-7.0223032,-45.48128029999999
362,Brazil,"Aguas Belas, PE, Brazil",1,-9.1125796,-37.1206004
363,Brazil,"Pocrane, MG, Brazil",1,-19.6209646,-41.6333852
364,Brazil,"Altinopolis, SP, Brazil",1,-21.0228295,-47.3742097
365,Brazil,"Montividiu, Go, Brazil",1,-17.4468103,-51.1762323
366,Brazil,"Paranapanema, SP, Brazil",1,-23.3863639,-48.7220328
367,Brazil,"Campo Maior, PI, Brazil",1,-4.8238312,-42.1667673
368,Brazil,"Palmeiras Das Missoes, Brazil",1,-27.9013019,-53.311712
369,Brazil,"Santa Ines, BA, Brazil",1,-13.2921295,-39.8190201
370,Brazil,"Irece, BA, Brazil",1,-11.3022176,-41.8476563
371,Brazil,"Cidade Gaucho, PR, Brazil",1,-23.3808606,-52.943272
372,Brazil,"Araripina, PE, Brazil",1,-7.576559999999999,-40.49763240000001
373,Brazil,"Coruripe, AL, Brazil",1,-10.1249995,-36.1761498
374,Brazil,"Canoinhas, SC, Brazil",1,-26.1745621,-50.3949633
375,Brazil,"Tatui, SP, Brazil",1,-23.3475079,-47.8474222
376,Brazil,"Mococa, SP, Brazil",1,-21.4739662,-47.0008934
377,Brazil,"Itarare, SP, Brazil",1,-24.1099321,-49.3306862
378,Brazil,"Sao Joao Da Boa Vista, SP, Brazil",1,-21.9698109,-46.7985054
379,Brazil,"Maracana, CE, Brazil",1,-3.817735,-39.9437125
380,Brazil,"Itumbiara, Go, Brazil",1,-18.4166854,-49.2170785
381,Brazil,"Monte Alegre Do Sul, SP, Brazil",1,-22.69004,-46.6826067
382,Brazil,"Acopiara, Ceara, Brazil",1,-6.0931519,-39.4531552
383,Brazil,"Assu, RN, Brazil",1,-5.5755928,-36.9150235
384,Brazil,"Mineiros, Go, Brazil",1,-17.5635333,-52.552764
385,Brazil,"Piuma, ES, Brazil",1,-20.8382491,-40.7230627
386,Brazil,"Suzanapolis, SP, Brazil",1,-20.5014409,-51.0257577
387,Brazil,"Querencia, MT, Brazil",1,-12.5943472,-52.20775339999999
388,Brazil,"Rinopolis, SP, Brazil",1,-21.7268151,-50.7225997
389,Brazil,"Catu, BA, Brazil",1,-12.3550864,-38.3756352
390,Brazil,"Almenara, MG, Brazil",1,-16.1796844,-40.6953223
391,Brazil,"Oiapoque, AP, Brazil",1,3.8429349,-51.8344456
392,Brazil,"Humaita, MA, Brazil",1,-5.080419,-45.6007108
393,Brazil,"Mundo Novo, MS, Brazil",1,-23.935744,-54.283336
394,Brazil,"Patos, Paraiba, Brazil",1,-7.0263449,-37.2769775
395,Brazil,"Panambi, RS, Brazil",1,-28.2906771,-53.4991557
396,Brazil,"Bom Jesus Da Lapa, BA, Brazil",1,-13.2521231,-43.41723030000001
397,Brazil,"Avare, SP, Brazil",1,-23.0991209,-48.9228793
398,Brazil,"Caruaru, PE, Brazil",1,-8.275373499999999,-35.9735057
399,Brazil,"Ponte Nova, MG, Brazil",1,-20.4091049,-42.8945074
400,Brazil,"Sao Gabriel Da Cachoeira, Amazonas, Brazil",1,-0.1307918,-67.0877374
401,Brazil,"Betim, MG, Brazil",1,-19.9697308,-44.2032108
402,Brazil,"Quixeramobim, Ceara, Brazil",1,-5.1982962,-39.2955312
403,Brazil,"Garopaba, SC, Brazil",1,-28.028072,-48.6216255
404,Brazil,"Exu, PE, Brazil",1,-7.5134865,-39.7233156
405,Brazil,"Ubatuba, SP, Brazil",1,-23.4345298,-45.0849154
406,Brazil,"Nova Mutum, Brazil",1,-13.8169976,-56.0884274
407,Brazil,"Arcoverde, PE, Brazil",1,-8.4176445,-37.0585205
408,Brazil,"Ponta Pora, MS, Brazil",1,-22.5373117,-55.72824989999999
409,Brazil,"Ivaipora, Parana, Brazil",1,-24.243603,-51.67372049999999
410,Brazil,"Boa Viagem, CE, Brazil",1,-5.1260161,-39.7309954
411,Brazil,"Penedo, Brazil",1,-10.2889455,-36.5839568
412,Brazil,"Adamantina, SP, Brazil",1,-21.6897157,-51.0795363
413,Brazil,"Sao Francisco De Paula, RS, Brazil",1,-29.4475013,-50.5815754
414,Brazil,"Itu, SP, Brazil",1,-23.2636298,-47.3010875
415,Brazil,"Sao Joao Evangelista, MG, Brazil",1,-18.5482501,-42.7661106
416,Brazil,"Aracati, CE, Brazil",1,-4.5612094,-37.7688612
417,Brazil,"Goianesia, Go, Brazil",1,-15.3263988,-49.1173239
418,Brazil,"Belem De Sao Francisco, PE, Brazil",1,-8.7509143,-38.962678
419,Brazil,"Cajazeiras, PB, Brazil",1,-6.892143399999999,-38.5586068
420,Brazil,"Capitao Poco, PA, Brazil",1,-1.7443708,-47.0646394
421,Brazil,"Santana, Amapa, Brazil",1,0.0728361,-51.4421664
422,Brazil,"Itiquira, MT, Brazil",1,-17.2058819,-54.1468881
423,Brazil,"Palmeira, Parana, Brazil",1,-25.4197196,-50.000433
424,Brazil,"Oeiras, Piaui, Brazil",1,-7.0150666,-42.1264762
425,Brazil,"Montenegro, RS, Brazil",1,-29.6816904,-51.4680471
426,Brazil,"Dom Eliseu, Brazil",1,-4.2930076,-47.55694219999999
427,Brazil,"Praca Sao Joao Del Rei, MG, Brazil",1,-17.8400469,-40.3497691
428,Brazil,"Pomba, MG, Brazil",1,-21.43311817624943,-42.83806089899997
429,Brazil,"Formosa, Go, Brazil",1,-15.540641,-47.33571
430,Brazil,"Pirapemas, Maranhao, Brazil",1,-3.7269697,-44.225082
431,Brazil,"Garca, SP, Brazil",1,-22.2131635,-49.65553939999999
432,Brazil,"Cristalina, Brazil",1,-16.7639015,-47.6085589
433,Brazil,"Luz, MG, Brazil",1,-19.790283,-45.6820678
434,Brazil,"Sao Felix Do Xingu, PA, Brazil",1,-6.6414418,-51.9762244
435,Brazil,"Palmeiras De Goias, Go, Brazil",1,-16.8044551,-49.9266024
436,Brazil,"Caxias, Maranhao, Brazil",1,-4.8653802,-43.3587107
437,Brazil,"Agua Preta, PE, Brazil",1,-8.7081827,-35.5216105
438,Brazil,"Rio Negro, PR, Brazil",1,-26.0874162,-49.78094979999999
439,Brazil,"Venancio Aires, RS, Brazil",1,-29.610075,-52.1928841
440,Brazil,"Vilhena, RO, Brazil",1,-12.7384594,-60.1221512
441,Brazil,"Olimpia, Sao Paulo, Brazil",1,-20.7405851,-48.9100392
442,Brazil,"Telemaco Borba, PR, Brazil",1,-24.3335157,-50.6250279
443,Brazil,"Capivari Do Sul, Brazil",1,-30.1469754,-50.51341120000001
0,Brunei,"Gadong, Brunei",36,4.9110092,114.9190547
1,Brunei,"Darussalam, Brunei",1,4.535277,114.727669
0,Bulgaria,"Sofia, Bulgaria",886,42.6977082,23.3218675
1,Bulgaria,"Plovdiv, Bulgaria",263,42.1354079,24.7452904
2,Bulgaria,"Kazanluk, Bulgaria",13,42.6194408,25.3929576
3,Bulgaria,"Varna, Bulgaria",11,43.2140504,27.9147333
4,Bulgaria,"Gen Toshevo, Bulgaria",8,43.70167620000001,28.0396345
5,Bulgaria,"Pleven, Bulgaria",6,43.4170423,24.6066847
6,Bulgaria,"Razgrad, Bulgaria",4,43.53367189999999,26.5411164
7,Bulgaria,"Stara Zagora, Bulgaria",3,42.4257769,25.6344644
8,Bulgaria,"Rousse, Bulgaria",2,43.83557130000001,25.9656554
9,Bulgaria,"Shumen, Bulgaria",2,43.2712398,26.9361286
10,Bulgaria,"Troyan, Bulgaria",2,42.8903751,24.7129702
11,Bulgaria,"Karnobat, Bulgaria",1,42.6511052,26.9803527
12,Bulgaria,"Nova Zagora, Bulgaria",1,42.4936347,26.0085439
13,Bulgaria,"Kyustendil, Bulgaria",1,42.2868817,22.6939308
14,Bulgaria,"Knezha, Bulgaria",1,43.4927972,24.0807647
0,Burkina Faso,"Ouagadougou, Burkina Faso",146,12.3714277,-1.5196603
1,Burkina Faso,"Bobo Dioulasso, Burkina Faso",36,11.1649219,-4.3051542
2,Burkina Faso,"Koudougou, Burkina Faso",6,12.2562183,-2.3517526
3,Burkina Faso,"Banfora, Burkina Faso",3,10.6400163,-4.7588042
4,Burkina Faso,"Leo, Sissili, Burkina Faso",1,11.0978809,-2.0959429
5,Burkina Faso,"Dedougou, Burkina Faso",1,12.4503003,-3.4700327
6,Burkina Faso,"Fada Ngourma, Burkina Faso",1,12.0601649,0.3654204
7,Burkina Faso,"Dori, Burkina Faso",1,14.0246473,-0.0233208
0,Burundi,"Bujumbura, Burundi",23,-3.361378,29.3598782
0,Cabo Verde,"Praia, Cabo Verde",5,14.93305,-23.5133267
1,Cabo Verde,"Sao Laurenco Do, Cabo Verde",1,16.5388,-23.0418
0,Cambodia,"Toul Kork, Phnom Penh, Cambodia",41,11.5722193,104.8980058
1,Cambodia,"Battambang City, Battambang Prov, Cambodia",7,13.09573,103.2022055
2,Cambodia,"Siem Reap, Cambodia",2,13.3632533,103.856403
3,Cambodia,"Senmonorom, Mondulkiri, Cambodia",1,12.4747209,107.1484521
0,Cameroon,"Yaounde, Cameroon",785,3.8480325,11.5020752
1,Cameroon,"Dschang, Cameroon",258,5.4459387,10.0471549
2,Cameroon,"Douala, Cameroon",115,4.0510564,9.7678687
3,Cameroon,"Buea, Cameroon",71,4.1559658,9.2632243
4,Cameroon,"Ngaoundere, Cameroon",44,7.338148800000001,13.5668302
5,Cameroon,"Maroua, Cameroon",43,10.5925289,14.3210095
6,Cameroon,"Bambili, Cameroon",29,6.0054338,10.2628167
7,Cameroon,"Mundemba, Cameroon",5,4.9734406,8.907978199999999
8,Cameroon,"Bafoussam, Cameroon",4,5.4815596,10.4271347
9,Cameroon,"Njombe, Cameroon",4,4.575304,9.6649587
10,Cameroon,"Kumba, Cameroon",4,4.6333268,9.4450439
11,Cameroon,"Bangangte, Cameroon",3,5.1443561,10.5239867
12,Cameroon,"Fundong, Boyo, Cameroon",3,6.2820276,10.2852532
13,Cameroon,"Nkongsamba, Cameroon",1,4.974116899999999,9.9353318
14,Cameroon,"Ebolowa, Cameroon",1,2.9262958,11.1560732
15,Cameroon,"Bali Nyonga, Cameroon",1,7.369721999999999,12.354722
0,Canada,"Vancouver, BC, Canada",1900,49.2827291,-123.1207375
1,Canada,"Saskatoon, SK, Canada",1727,52.157902,-106.6701577
2,Canada,"Guelph, ON, Canada",1349,43.5448048,-80.24816659999999
3,Canada,"Edmonton, AB, Canada",1176,53.5460983,-113.4937266
4,Canada,"Toronto, ON, Canada",1101,43.653226,-79.3831843
5,Canada,"Quebec City, PQ, Canada",1001,46.8130816,-71.20745959999999
6,Canada,"Ottawa, ON, Canada",976,45.4215296,-75.69719309999999
7,Canada,"Montreal, PQ, Canada",952,45.5018869,-73.56739189999999
8,Canada,"Winnipeg, MB, Canada",807,49.8954221,-97.1385145
9,Canada,"London, ON, Canada",719,42.9849233,-81.2452768
10,Canada,"Calgary, AB, Canada",380,51.04473309999999,-114.0718831
11,Canada,"Victoria, BC, Canada",336,48.4284207,-123.3656444
12,Canada,"Lethbridge, AB, Canada",323,49.6956181,-112.8451067
13,Canada,"Halifax, NS, Canada",301,44.64876350000001,-63.5752387
14,Canada,"Fredericton, NB, Canada",282,45.9635895,-66.6431151
15,Canada,"Ste Anne De Bellevue, PQ, Canada",250,45.4032761,-73.9503608
16,Canada,"Vineland Station, ON, Canada",205,43.170809,-79.394003
17,Canada,"Kingston, ON, Canada",203,44.2311717,-76.4859544
18,Canada,"Charlottetown, PE, Canada",197,46.23824,-63.13107040000001
19,Canada,"Truro, NS, Canada",191,45.3657733,-63.28694069999999
20,Canada,"Summerland, BC, Canada",170,49.603236,-119.6834179
21,Canada,"Sherbrooke, PQ, Canada",161,45.4042669,-71.89367399999999
22,Canada,"St Jean, PQ, Canada",152,45.305771,-73.2544903
23,Canada,"Morden, MB, Canada",136,49.1922753,-98.114271
24,Canada,"Kentville, NS, Canada",128,45.0769115,-64.4944735
25,Canada,"Kelowna, BC, Canada",126,49.8879519,-119.4960106
26,Canada,"Lacombe, AB, Canada",124,52.4681872,-113.730525
27,Canada,"Ridgetown, ON, Canada",115,42.4392003,-81.887149
28,Canada,"Hamilton, ON, Canada",113,43.2557206,-79.8711024
29,Canada,"Swift Current, SK, Canada",111,50.285069,-107.7971722
30,Canada,"Harrow, ON, Canada",109,42.0355591,-82.918148
31,Canada,"St John, NF, Canada",102,47.5615096,-52.7125768
32,Canada,"Peterborough, ON, Canada",99,44.3047061,-78.3199606
33,Canada,"Chicoutimi, PQ, Canada",76,48.4120843,-71.05110789999999
34,Canada,"Brandon, MB, Canada",70,49.8437486,-99.9514807
35,Canada,"Vegreville, AB, Canada",69,53.4940484,-112.0537769
36,Canada,"Trois Rivieres, PQ, Canada",65,46.34298200000001,-72.5420716
37,Canada,"Thunder Bay, ON, Canada",59,48.3808951,-89.2476823
38,Canada,"Sault Ste Marie, ON, Canada",54,46.5136494,-84.33575259999999
39,Canada,"Rouyn Noranda, PQ, Canada",54,48.2342362,-79.01878359999999
40,Canada,"Sackville, NB, Canada",50,45.897903,-64.3682803
41,Canada,"Simcoe, ON, Canada",49,42.8372632,-80.3040424
42,Canada,"Agassiz, BC, Canada",48,49.2389409,-121.7658827
43,Canada,"Kamloops, BC, Canada",46,50.674522,-120.3272674
44,Canada,"Sudbury, ON, Canada",45,46.4917317,-80.99302899999999
45,Canada,"Prince George, BC, Canada",41,53.9170641,-122.7496693
46,Canada,"Regina, SK, Canada",38,50.4452112,-104.6188944
47,Canada,"Brooks, AB, Canada",37,50.56570929999999,-111.8977868
48,Canada,"Moncton, NB, Canada",36,46.0878165,-64.7782313
49,Canada,"St John, NB, Canada",34,45.2733153,-66.0633081
50,Canada,"Melfort, SK, Canada",34,52.8608387,-104.6142973
51,Canada,"St Mathieu De Beloeil, PQ, Canada",32,45.605068,-73.2478531
52,Canada,"Corner Brook, NF, Canada",28,48.9489967,-57.95027260000001
53,Canada,"Antigonish, NS, Canada",23,45.62266049999999,-61.9928025
54,Canada,"Rimouski, PQ, Canada",22,48.4389803,-68.5349704
55,Canada,"Sherrington, PQ, Canada",20,45.165349,-73.5250961
56,Canada,"Windsor, ON, Canada",20,42.3149367,-83.03636329999999
57,Canada,"Ripon, PQ, Canada",17,45.7858639,-75.098867
58,Canada,"Indian Head, SK, Canada",15,50.5333571,-103.6699014
59,Canada,"Wicklow, NB, Canada",13,46.48333299999999,-67.6
60,Canada,"Normandin, PQ, Canada",12,48.8368644,-72.5278609
61,Canada,"Beaverlodge, AB, Canada",11,55.2093678,-119.4299018
62,Canada,"Abbotsford, BC, Canada",11,49.0504377,-122.3044697
63,Canada,"Qualicum Beach, BC, Canada",9,49.3482346,-124.4428262
64,Canada,"Scott, SK, Canada",9,52.3657402,-108.8287573
65,Canada,"Nanaimo, BC, Canada",9,49.1658836,-123.9400647
66,Canada,"Carman, MB, Canada",8,49.5025602,-98.0016294
67,Canada,"Bamfield, BC, Canada",7,48.83328909999999,-125.142835
68,Canada,"Sydney, NS, Canada",7,46.1367899,-60.19422399999999
69,Canada,"Whitehorse, YT, Canada",7,60.7211871,-135.0568449
70,Canada,"Langley, BC, Canada",7,49.1041779,-122.6603519
71,Canada,"Boyle, AB, Canada",6,54.58734250000001,-112.8033552
72,Canada,"Smithers, BC, Canada",6,54.782355,-127.1685541
73,Canada,"Vernon, BC, Canada",6,50.2670137,-119.2720107
74,Canada,"Amos, PQ, Canada",6,48.5650196,-78.1125205
75,Canada,"Palmerston, ON, Canada",6,43.8343143,-80.84826939999999
76,Canada,"W Hill, ON, Canada",5,56.130366,-106.346771
77,Canada,"Orillia, ON, Canada",4,44.6082465,-79.4196783
78,Canada,"Pointe Aux Outardes, PQ, Canada",4,49.04304399999999,-68.4179767
79,Canada,"Peace River, AB, Canada",4,56.2331242,-117.3340458
80,Canada,"Chatham, ON, Canada",4,42.4048028,-82.19103779999999
81,Canada,"North Bay, ON, Canada",4,46.3091152,-79.4608204
82,Canada,"Mirabel, PQ, Canada",4,45.65189590000001,-74.09016960000001
83,Canada,"La Pocatiere, PQ, Canada",4,47.3648759,-70.0336736
84,Canada,"Bouctouche, NB, Canada",4,46.47227609999999,-64.7242645
85,Canada,"Williams Lake, BC, Canada",3,52.1416736,-122.1416885
86,Canada,"Clearwater, BC, Canada",3,51.6510712,-120.0381726
87,Canada,"Ft Mcmurray, AB, Canada",3,56.7266231,-111.3790095
88,Canada,"Terrace, BC, Canada",3,54.5181925,-128.603154
89,Canada,"Ailsa Craig, ON, Canada",3,43.1470282,-81.5337693
90,Canada,"Mesachie Lake, BC, Canada",3,48.808933,-124.124293
91,Canada,"Riviere Du Loup, PQ, Canada",3,47.835957,-69.5359854
92,Canada,"Pasadena, NF, Canada",3,49.0130399,-57.589375
93,Canada,"Oshawa, ON, Canada",3,43.8970929,-78.86579119999999
94,Canada,"Caledon, ON, Canada",3,43.8363372,-79.87448359999999
95,Canada,"Olds, AB, Canada",3,51.7950595,-114.1199063
96,Canada,"Kempt, NS, Canada",3,44.42875799999999,-65.12050099999999
97,Canada,"Smiths Falls, ON, Canada",3,44.903748,-76.02161889999999
98,Canada,"Stirling, ON, Canada",2,44.2961831,-77.5474752
99,Canada,"Leduc, AB, Canada",2,53.2647566,-113.5525216
100,Canada,"Dorset, ON, Canada",2,45.2444301,-78.8939439
101,Canada,"St Casimir, PQ, Canada",2,46.6559201,-72.1406839
102,Canada,"Mont Joli, PQ, Canada",2,48.58561359999999,-68.190099
103,Canada,"Portage Prairie, MB, Canada",2,49.97311269999999,-98.2924804
104,Canada,"Port Hope, ON, Canada",2,43.949164,-78.2934616
105,Canada,"Jasper, AB, Canada",2,52.8736786,-118.0813581
106,Canada,"New Annan, PE, Canada",2,46.419765,-63.710213
107,Canada,"Outlook, SK, Canada",2,51.4873603,-107.0578423
108,Canada,"Stratford, ON, Canada",2,43.3700007,-80.98222860000001
109,Canada,"Calvert Isl, BC, Canada",2,51.5558728,-128.0365167
110,Canada,"Grand Falls, NB, Canada",2,47.0479934,-67.7399015
111,Canada,"Stony Plain, AB, Canada",2,53.5291419,-114.0018178
112,Canada,"Hinton, AB, Canada",2,53.399067,-117.5794057
113,Canada,"Salmon Arm, BC, Canada",2,50.7001034,-119.2838443
114,Canada,"Canmore, AB, Canada",2,51.089907,-115.3441116
115,Canada,"Falher, AB, Canada",2,55.737768,-117.2018651
116,Canada,"Upper Lahave, NS, Canada",2,44.36679100000001,-64.45178
117,Canada,"New Liskeard, ON, Canada",2,47.5036644,-79.6978808
118,Canada,"Campbell River, BC, Canada",2,50.03312260000001,-125.2733354
119,Canada,"Carberry, MB, Canada",1,49.8712248,-99.3608438
120,Canada,"Inuvik, NT, Canada",1,68.3607437,-133.7230177
121,Canada,"Mcauley, MB, Canada",1,50.2624073,-101.388408
122,Canada,"Inkerman, ON, Canada",1,45.036519,-75.394754
123,Canada,"Minto, MB, Canada",1,49.40678399999999,-100.023938
124,Canada,"Sooke, BC, Canada",1,48.37403459999999,-123.7355539
125,Canada,"Amqui, PQ, Canada",1,48.4646053,-67.4311915
126,Canada,"Tisdale, SK, Canada",1,52.8473958,-104.0489835
127,Canada,"Bonnyville, AB, Canada",1,54.2679661,-110.7397826
128,Canada,"Barrhead, AB, Canada",1,54.1229824,-114.4017497
129,Canada,"Ottawa, PQ, Canada",1,46.65678572212994,-76.76097747641342
130,Canada,"Waterton Park, AB, Canada",1,49.05096,-113.908563
131,Canada,"Osler, SK, Canada",1,52.3674367,-106.5361785
132,Canada,"Humbolt, SK, Canada",1,52.2019792,-105.1228655
133,Canada,"Shippegan, NB, Canada",1,47.74392839999999,-64.7056928
134,Canada,"Wasagaming, MB, Canada",1,50.6578364,-99.963618
135,Canada,"Leamington, ON, Canada",1,42.0531634,-82.5998874
136,Canada,"Queens Cty, NS, Canada",1,42.83081199999999,-63.3091804
137,Canada,"Sechelt, BC, Canada",1,49.4741736,-123.7545601
138,Canada,"Rocky Harbour, NF, Canada",1,49.5904818,-57.9151532
139,Canada,"St Alphonse Rodriguez, PQ, Canada",1,46.1836458,-73.6937494
140,Canada,"Medicine Hat, AB, Canada",1,50.0290218,-110.7031976
141,Canada,"Forestburg, AB, Canada",1,52.5835843,-112.0630331
142,Canada,"High Prairie, AB, Canada",1,55.4328449,-116.488581
143,Canada,"Ft St John, BC, Canada",1,56.252423,-120.846409
144,Canada,"Tignish, PE, Canada",1,46.9504852,-64.0330408
145,Canada,"Legal, AB, Canada",1,53.9489734,-113.5952301
146,Canada,"Powell River, BC, Canada",1,49.8352352,-124.5247062
147,Canada,"Tobermory, ON, Canada",1,45.2533625,-81.6645411
148,Canada,"Iqaluit, NU, Canada",1,63.74669300000001,-68.5169669
149,Canada,"Paradise, NS, Canada",1,44.86707,-65.224363
150,Canada,"Sunderland, ON LOC, Canada",1,44.2628301,-79.0663132
151,Canada,"Grande Riviere, PQ, Canada",1,48.3958679,-64.4912636
152,Canada,"Cranbrook, BC, Canada",1,49.5129678,-115.7694002
153,Canada,"Shubenacadie, NS, Canada",1,45.0879644,-63.4019999
154,Canada,"St Andrews, NB, Canada",1,45.0738432,-67.0530897
155,Canada,"Haines Junction, YT, Canada",1,60.7544541,-137.5117818
156,Canada,"Oliver, BC, Canada",1,49.1823264,-119.550428
157,Canada,"Nelson, BC, Canada",1,49.4928119,-117.2948343
158,Canada,"Brantford, ON, Canada",1,43.1393867,-80.2644254
159,Canada,"Chalk River, ON, Canada",1,46.0159102,-77.45227609999999
160,Canada,"Airdrie, AB, Canada",1,51.29269679999999,-114.0134113
161,Canada,"South Porcupine, ON, Canada",1,48.4853588,-81.2102329
162,Canada,"Fort McPherson, NT, Canada",1,67.43644499999999,-134.880755
163,Canada,"Lindsay, ON, Canada",1,44.3565742,-78.7407542
164,Canada,"Vermilion, AB, Canada",1,53.3539325,-110.8586098
165,Canada,"Alvinston, ON, Canada",1,42.8190694,-81.86229610000001
166,Canada,"Taber, AB, Canada",1,49.7818493,-112.1496791
0,Cayman Islands,"Grand Cayman, Cayman Islands",1,19.3221698,-81.2408689
0,Central African Republic,"Bangui, Central African Republic",6,4.3946735,18.5581899
0,Chad,"Ndjamena, Chad",1,12.1348457,15.0557415
0,Chile,"Santiago, Chile",1444,-33.4488897,-70.6692655
1,Chile,"Temuco, Chile",410,-38.7383905,-72.59045979999999
2,Chile,"Talca, Chile",404,-35.4232444,-71.6484804
3,Chile,"Concepcion, Chile",339,-36.8201352,-73.0443904
4,Chile,"Valdivia, Chile",199,-39.8173788,-73.24253329999999
5,Chile,"La Serena, Chile",169,-29.9026691,-71.2519374
6,Chile,"Valparaiso, Chile",156,-33.047238,-71.61268849999999
7,Chile,"Chillan, Chile",109,-36.6062618,-72.10233509999999
8,Chile,"Quillota, Chile",79,-32.8803027,-71.2497156
9,Chile,"Coyhaique, Chile",40,-45.5712254,-72.068265
10,Chile,"Rengo, Chile",38,-34.4028433,-70.8608394
11,Chile,"Antofagasta, Chile",33,-23.6509279,-70.39750219999999
12,Chile,"Arica, Chile",30,-18.4782534,-70.3125988
13,Chile,"Punta Arenas, Chile",29,-53.1633845,-70.9078263
14,Chile,"Iquique, Chile",22,-20.2307033,-70.1356692
15,Chile,"Curico, Chile",18,-34.9779853,-71.2528803
16,Chile,"Osorno, Chile",18,-40.5761897,-73.11494689999999
17,Chile,"Los Angeles, Chile",16,-37.4629159,-72.3612251
18,Chile,"Puerto Montt, Chile",14,-41.468917,-72.94113639999999
19,Chile,"Rancagua, Chile",10,-34.17013240000001,-70.7406259
20,Chile,"Cauquenes, Chile",5,-35.9676285,-72.32223309999999
21,Chile,"Copiapo, Chile",4,-27.3665763,-70.3321587
22,Chile,"Puerto Williams, Chile",4,-54.9352098,-67.6058537
23,Chile,"Ovalle, Chile",3,-30.604304,-71.19698819999999
24,Chile,"Vicuna, Chile",2,-30.0326781,-70.70807359999999
25,Chile,"Coronel, Chile",2,-37.0340769,-73.1404838
26,Chile,"Linares, Chile",2,-35.846407,-71.59961369999999
27,Chile,"Tarapaca, Chile",1,-20.2028799,-69.2877535
28,Chile,"Ohiggins, Chile",1,-48.46614959999999,-72.5592154
29,Chile,"San Pedro De Atacama, Chile",1,-22.9087073,-68.19971559999999
0,China,"Beijing, Beijing, China",26494,39.904211,116.407395
1,China,"Nanjing, Jiangsu, China",10215,32.0583799,118.79647
2,China,"Wuhan, Hubei, China",7475,30.5927599,114.30525
3,China,"Shanghai, Shaghai, China",7267,31.230416,121.473701
4,China,"Guangzhou, Guangdong, China",7238,23.1290799,113.26436
5,China,"Hangzhou, Zhejiang, China",6784,30.2741499,120.15515
6,China,"Kunming, Yunnan, China",4753,24.8796599,102.83322
7,China,"Yangling, Shaanxi, China",4293,34.2722099,108.08455
8,China,"Chengdu, Sichuan, China",3703,30.5722599,104.0665099
9,China,"Lanzhou, Gansu, China",2699,36.0613799,103.83417
10,China,"Tai An, Shandong, China",2693,36.1999399,117.0884
11,China,"Fuzhou, Fujian, China",2618,26.0742099,119.29647
12,China,"Hong Kong, Hong Kong, China",2356,22.3193039,114.1693611
13,China,"Harbin, Heilongjiang, China",2320,45.7567307,126.6424173
14,China,"Shenyang, Liaoning, China",2268,41.804778,123.432968
15,China,"Changsha, Hunan, China",2153,28.2277799,112.93886
16,China,"Jinan, Shandong, China",2041,36.6518399,117.12009
17,China,"Zhengzhou, Henan, China",1972,34.7472499,113.62493
18,China,"Chongqing, Chongqing, China",1965,29.5656843,106.5511838
19,China,"Qingdao, Shandong, China",1800,36.0662299,120.38299
20,China,"Changchun, Jilin, China",1580,43.8160199,125.32357
21,China,"Hefei, Anhui, China",1575,31.8205699,117.22901
22,China,"Tianjin, Tianjin, China",1548,39.0850999,117.19937
23,China,"Xian, Shaanxi, China",1530,34.2658138,108.9540936
24,China,"Yangzhou, Jiangsu, China",1377,32.3935799,119.41269
25,China,"Haikou, Hainan, China",1250,20.0442199,110.19989
26,China,"Shenzhen, Guangdong, China",1095,22.5428599,114.05956
27,China,"Nanchang, Jiangxi, China",1008,28.6820199,115.8579399
28,China,"Urumqi, Xinjiang, China",984,43.8266299,87.61688
29,China,"Guiyang, Guizhou, China",903,26.6475899,106.63019
30,China,"Shijiazhuang, Hebei, China",876,38.0427599,114.5143
31,China,"Baoding, Hebei, China",763,38.8739599,115.46459
32,China,"Xinxiang, Henan, China",690,35.3032299,113.92675
33,China,"Anyang, Henan, China",603,36.097524,114.3930629
34,China,"Dalian, Liaoning, China",551,38.9139899,121.6147
35,China,"Hohhot, Inner Mongolia, China",532,40.8414899,111.75199
36,China,"Jingzhou, Hubei, China",508,30.33478989999999,112.24069
37,China,"Taiyuan, Shanxi, China",445,37.8705899,112.55067
38,China,"Kaifeng, Henan, China",406,34.7972599,114.30731
39,China,"Yaan, Sichuan, China",391,30.01052989999999,103.0424
40,China,"Shihezi, Xinjiang, China",385,44.3065299,86.07893000000001
41,China,"Nanning, Guangxi, China",364,22.8167299,108.3669
42,China,"Mengla, Yunnan, China",361,21.4594099,101.56461
43,China,"Taigu, Shanxi, China",338,37.4212403,112.5512305
44,China,"Luoyang, Henan, China",334,34.6181299,112.45402
45,China,"Yinchuan, Ningxia, China",333,38.4862899,106.23245
46,China,"Guilin, Guangxi, China",324,25.2736099,110.29002
47,China,"Macau, Macao, China",292,22.198745,113.543873
48,China,"Xining, Qinghai, China",261,36.6172899,101.77782
49,China,"Ningbo, Zhejiang, China",251,29.868336,121.54399
50,China,"Wenzhou, Zhejiang, China",234,27.9949199,120.69939
51,China,"Xuzhou, Jiangsu, China",205,34.2043999,117.28577
52,China,"Jinhua, Zhejiang, China",192,29.0781199,119.64759
53,China,"Huaian, Jiangsu, China",185,33.551052,119.113185
54,China,"Daqing, Heilongjiang, China",180,46.58757989999999,125.10307
55,China,"Nantong, Jiangsu, China",179,31.9795799,120.89371
56,China,"Taizhou, Zhejiang, China",177,28.6561099,121.42056
57,China,"Xiamen, Fujian, China",173,24.4795099,118.0894799
58,China,"Danzhou, Hainan, China",144,19.5209299,109.58069
59,China,"Yantai, Shandong, China",138,37.4635299,121.44801
60,China,"Linyi, Shandong, China",127,35.1046499,118.3564599
61,China,"Zhanjiang, Guangdong, China",123,21.2713399,110.35894
62,China,"Lianyungang, Jiangsu, China",122,34.5966899,119.22295
63,China,"Tangshan, Hebei, China",120,39.6304499,118.18022
64,China,"Linan, Zhejiang, China",116,30.2338299,119.7248
65,China,"Yichang, Hubei, China",113,30.69177969999999,111.2863313
66,China,"Wuxi, Jiangsu, China",108,31.4909899,120.31237
67,China,"Lhasa, Tibet, China",107,29.6526199,91.13775
68,China,"Zunyi, Guizhou, China",106,27.7254499,106.92723
69,China,"Yancheng, Jiangsu, China",99,33.3495099,120.16164
70,China,"Wuhu, Anhui, China",96,31.3524599,118.43313
71,China,"Linfen, Shanxi, China",95,36.0882199,111.51962
72,China,"Yanji, Jilin, China",95,42.8910699,129.5091
73,China,"Mianyang, Sichuan, China",93,31.4675099,104.6795999
74,China,"Bengbu, Anhui, China",89,32.9154799,117.38932
75,China,"Liaocheng, Shandong, China",87,36.4570199,115.9854899
76,China,"Nyingchi, Tibet, China",85,29.6365399,94.3611899
77,China,"Zibo, Shandong, China",80,36.8130999,118.0548
78,China,"Jilin, Jilin, China",79,43.8378399,126.54944
79,China,"Jinzhong, Shanxi, China",78,37.6870199,112.75278
80,China,"Dongguan, Guangdong, China",78,23.0206699,113.75179
81,China,"Dezhou, Shandong, China",75,37.4354999,116.35927
82,China,"Xingcheng, Liaoning, China",73,40.6101799,120.75619
83,China,"Weifang, Shandong, China",72,36.7068599,119.16176
84,China,"Zhoukou, Henan, China",71,33.6258299,114.6969499
85,China,"Qiqihar, Heilongjiang, China",70,47.3543099,123.91796
86,China,"Shantou, Guangdong, China",69,23.3534999,116.68221
87,China,"Jian, Jiangxi, China",68,27.1138199,114.99376
88,China,"Yuxi, Yunnan, China",65,24.3472599,102.52744
89,China,"Suzhou, Jiangsu, China",64,31.29833989999999,120.58319
90,China,"Huanggang, Hubei, China",63,30.4534699,114.87238
91,China,"Alar, Xinjiang, China",61,40.5479799,81.28067
92,China,"Fuyang, Zhejiang, China",60,30.0488499,119.96043
93,China,"Hanzhong, Shaanxi, China",58,33.0676099,107.02377
94,China,"Tongliao, Inner Mongolia, China",55,43.6524699,122.24469
95,China,"Enshi, Hubei, China",54,30.2721699,109.48817
96,China,"Qinhuangdao, Hebei, China",53,39.93544989999999,119.59964
97,China,"Xiangtan, Hunan, China",53,27.8297499,112.94411
98,China,"Qufu, Shandong, China",53,35.4746899,117.24542
99,China,"Nanchong, Sichuan, China",52,30.8379015,106.1105999
100,China,"Sanya, Hainan, China",49,18.2524799,109.51209
101,China,"Jishou, Hunan, China",48,28.2624399,109.69811
102,China,"Huaibei, Anhui, China",47,33.9547899,116.7983399
103,China,"Handan, Hebei, China",44,36.6255599,114.53918
104,China,"Shiyan, Hubei, China",44,32.6291799,110.79801
105,China,"Jiamusi, Heilongjiang, China",44,46.7997599,130.31882
106,China,"Lishui, Zhejiang, China",43,28.4671999,119.92293
107,China,"Luzhou, Sichuan, China",43,28.8716999,105.44257
108,China,"Weihai, Shandong, China",42,37.5134799,122.12171
109,China,"Changli, Hebei, China",42,39.7128399,119.16288
110,China,"Huaihua, Hunan, China",42,27.5697399,110.0016
111,China,"Heze, Shandong, China",41,35.2336299,115.48115
112,China,"Jiujiang, Jiangxi, China",40,29.6605799,115.9541
113,China,"Gongzhuling, Jilin, China",40,43.5046799,124.8228
114,China,"Shaoxing, Zhejiang, China",39,29.995762,120.586109
115,China,"Zhoushan, Zhejiang, China",39,29.9853899,122.20778
116,China,"Huzhou, Zhejiang, China",39,30.8930499,120.08805
117,China,"Wenchang, Hainan, China",37,19.5432899,110.79774
118,China,"Jining, Shandong, China",36,35.4145899,116.58724
119,China,"Jiaxing, Zhejiang, China",36,30.753924,120.758543
120,China,"Mudanjiang, Heilongjiang, China",35,44.5526899,129.63244
121,China,"Cele, Xinjiang, China",35,36.9984599,80.81004999999999
122,China,"Ganzhou, Jiangxi, China",35,25.8310899,114.93476
123,China,"Fuxing, Liaoning, China",35,42.0216599,121.67011
124,China,"Jiaozuo, Henan, China",34,35.2156299,113.24201
125,China,"Suqian, Jiangsu, China",34,33.9619299,118.27549
126,China,"Baotou, Inner Mongolia, China",34,40.6578099,109.84021
127,China,"Tianshui, Gansu, China",34,34.5808499,105.72486
128,China,"Zaozhuang, Shandong, China",33,34.8107099,117.32196
129,China,"Zhangye, Gansu, China",32,38.9259199,100.44981
130,China,"Siping, Jilin, China",32,43.1664599,124.35036
131,China,"Xichang, Sichuan, China",32,27.8944899,102.26305
132,China,"Yibin, Sichuan, China",31,28.7512999,104.6417
133,China,"Pingxiang, Jiangxi, China",31,27.6228899,113.85427
134,China,"Xishuangbanna, Yunnan, China",31,22.0074899,100.7973899
135,China,"Dujiangyan, Sichuan, China",31,30.9883699,103.64662
136,China,"Zhaoqing, Guangdong, China",30,23.0468999,112.46528
137,China,"Datong, Shanxi, China",30,40.0763699,113.30001
138,China,"Xiaogan, Hubei, China",30,30.9248299,113.91645
139,China,"Zhangjiakou, Hebei, China",29,40.7686911,114.8855792
140,China,"Puer, Yunnan, China",28,22.8252099,100.96624
141,China,"Shangqiu, Henan, China",27,34.4142699,115.65635
142,China,"Mengzi, Yunnan, China",27,23.3962199,103.36481
143,China,"Quanzhou, Fujian, China",26,24.8740499,118.67583
144,China,"Jurong, Jiangsu, China",26,31.9448199,119.16864
145,China,"Changzhou, Jiangsu, China",26,31.8107199,119.97365
146,China,"Shaoguan, Guangdong, China",25,24.8103899,113.59723
147,China,"Dandong, Liaoning, China",24,39.9997999,124.35601
148,China,"Zhumadian, Henan, China",24,33.0114199,114.02299
149,China,"Yulin, Shaanxi, China",24,38.28519989999999,109.73458
150,China,"Zhongshan, Guangdong, China",24,22.5159499,113.3926
151,China,"Baoshan, Yunnan, China",23,25.1120499,99.16181
152,China,"Jingmen, Hubei, China",23,31.0354599,112.19945
153,China,"Zhangzhou, Fujian, China",23,24.5134699,117.64725
154,China,"Nanyang, Henan, China",23,32.9907299,112.52851
155,China,"Dongying, Shandong, China",23,37.4336499,118.67466
156,China,"Keshan, Heilongjiang, China",22,48.0369399,125.87561
157,China,"Wenshan, Yunnan, China",22,23.3985076,104.2150506
158,China,"Huangshan, Anhui, China",22,29.7151699,118.33866
159,China,"Yuncheng, Shanxi, China",22,35.0262799,111.00699
160,China,"Tongchuan, Shaanxi, China",21,34.8967299,108.94515
161,China,"Rizhao, Shandong, China",21,35.4164599,119.52719
162,China,"Yanan, Shaanxi, China",21,36.5852899,109.48978
163,China,"Pingdingshan, Henan, China",21,33.7660899,113.19241
164,China,"Shangrao, Jiangxi, China",20,28.4546299,117.9435699
165,China,"Wuyishan, Fujian, China",20,27.7567099,118.03548
166,China,"Neijiang, Sichuan, China",19,29.5801499,105.05844
167,China,"Kaili, Guizhou, China",19,26.5675599,107.9804
168,China,"Huangshi, Hubei, China",19,30.1995299,115.0389
169,China,"Sanming, Fujian, China",18,26.2638499,117.63922
170,China,"Xinyang, Henan, China",18,32.1471399,114.09279
171,China,"Qujing, Yunnan, China",18,25.4900199,103.79625
172,China,"Laiyang, Shandong, China",18,36.9787999,120.71173
173,China,"Yingkou, Liaoning, China",18,40.6659899,122.23458
174,China,"Turpan, Xinjiang, China",18,42.9512999,89.1895399
175,China,"Huitong, Hunan, China",17,26.8871799,109.7357
176,China,"Lushan, Jiangxi, China",17,29.4482099,116.04512
177,China,"Yuanjiang, Yunnan, China",17,23.5966699,101.99809
178,China,"Kashgar, Xinjiang, China",17,39.4704199,75.98975999999999
179,China,"Longyan, Fujian, China",17,25.0750399,117.01722
180,China,"Chifeng, Inner Mongolia, China",16,42.2585999,118.88894
181,China,"Suihua, Heilongjiang, China",16,46.6524599,126.96932
182,China,"Changzhi, Shanxi, China",16,36.1958099,113.11649
183,China,"Xiongyue, Liaoning, China",16,40.205788,122.127582
184,China,"Chaozhou, Guangdong, China",16,23.6566999,116.62296
185,China,"Baise, Guangxi, China",16,23.9021599,106.61838
186,China,"Xingtai, Hebei, China",15,37.0705499,114.50443
187,China,"Dengkou, Inner Mongolia, China",15,40.3305599,107.00864
188,China,"Heilongtan, Kunming, China",15,24.89696,103.30025
189,China,"Liuzhou, Guangxi, China",15,24.3255257,109.4154583
190,China,"Tongren, Guizhou, China",14,27.7315599,109.18962
191,China,"Shaoyang, Hunan, China",14,27.2388999,111.4677
192,China,"Shouguang, Shandong, China",14,36.8554099,118.79098
193,China,"Chenzhou, Hunan, China",14,25.7706299,113.01485
194,China,"Baicheng, Jilin, China",14,45.6195999,122.83871
195,China,"Deyang, Sichuan, China",14,31.1267899,104.3979
196,China,"Maanshan, Anhui, China",14,31.6706695,118.50611
197,China,"Ordos, Inner Mongolia, China",13,39.6084499,109.78087
198,China,"Liupanshui, Guizhou, China",13,26.5933599,104.83023
199,China,"Zigong, Sichuan, China",13,29.33919989999999,104.77844
200,China,"Huizhou, Guangdong, China",13,23.1125099,114.41552
201,China,"Langfang, Hebei, China",13,39.5377499,116.68376
202,China,"Hengshui, Hebei, China",12,37.7388599,115.67054
203,China,"Ningde, Fujian, China",12,26.6657099,119.54819
204,China,"Putian, Fujian, China",12,25.4539999,119.00771
205,China,"Xiangyang, Hubei, China",12,32.0089999,112.12255
206,China,"Fuyang, Anhui, China",12,32.8896299,115.81495
207,China,"Chuxiong, Yunnan, China",12,25.0449495,101.5276703
208,China,"Beibei Qu, Chongqing Shi, China",12,29.8058299,106.39628
209,China,"Jingdong, Yunnan, China",12,24.4469699,100.8339
210,China,"Shangluo, Shaanxi, China",12,33.8703599,109.94041
211,China,"Chengde, Hebei, China",12,40.95149989999999,117.9634
212,China,"Hengyang, Hunan, China",12,26.8931586,112.5719704
213,China,"Dali, Yunnan, China",12,25.6064799,100.26764
214,China,"Zhuji, Zhejiang, China",12,29.7136399,120.23632
215,China,"Baoji, Shaanxi, China",12,34.3631699,107.23775
216,China,"Menghai, Yunnan, China",11,21.9575299,100.45223
217,China,"Kaiyuan, Yunnan, China",11,23.7143399,103.26676
218,China,"Xuchang, Henan, China",11,34.0356999,113.85233
219,China,"Taizhou, Jiangsu, China",11,32.4554599,119.92554
220,China,"Panzhihua, Sichuan, China",11,26.5822799,101.71872
221,China,"Zaoyang, Hubei, China",11,32.1283599,112.77398
222,China,"Weinan, Shaanxi, China",11,34.4999699,109.51015
223,China,"Alaer, Xinjiang, China",11,40.57205,80.26275
224,China,"Heihe, Heilongjiang, China",10,50.2452299,127.52852
225,China,"Meishan, Sichuan, China",10,30.0756299,103.84851
226,China,"Panjin, Liaoning, China",10,41.1199599,122.07078
227,China,"Yining, Xinjiang, China",10,43.9771499,81.52732
228,China,"Tonghua, Jilin, China",10,41.7282899,125.9399
229,China,"Meizhou, Guangdong, China",10,24.2884399,116.12264
230,China,"Changshu, Jiangsu, China",10,31.6538099,120.75224
231,China,"Binzhou, Shandong, China",10,37.3821099,117.97279
232,China,"Maoming, Guangdong, China",10,21.6632899,110.92523
233,China,"Renhuai, Guizhou, China",10,27.7558999,106.35191
234,China,"Wuwei, Gansu, China",9,37.9281999,102.63797
235,China,"Alxa League, Inner Mongolia, China",9,38.8515299,105.72898
236,China,"Loudi, Hunan, China",9,27.6972799,111.99458
237,China,"Bijie, Guizhou, China",9,27.2984699,105.30504
238,China,"Xinzhou, Shanxi, China",9,38.4166999,112.73418
239,China,"Ankang, Shaanxi, China",9,32.6848599,109.02932
240,China,"Hulunbuir, Inner Mongolia, China",9,49.21162990000001,119.76584
241,China,"Zhaoxian, Hebei, China",9,37.7563099,114.77616
242,China,"Yiyang, Hunan, China",9,28.5539103,112.3551607
243,China,"Lijiang, Yunnan, China",9,26.8564799,100.2270999
244,China,"Jingdezhen, Jiangxi, China",8,29.2686899,117.1783899
245,China,"Luohe, Henan, China",8,33.5814899,114.01681
246,China,"Jingxi, Guangxi, China",8,23.1340199,106.4176899
247,China,"Linhai, Zhejiang, China",8,28.8583999,121.14495
248,China,"Weixi, Yunnan, China",8,27.1773899,99.2870499
249,China,"Wanning, Hainan, China",7,18.7953199,110.38975
250,China,"Luntai, Xinjiang, China",7,41.7776299,84.25191
251,China,"Yingtan, Jiangxi, China",7,28.2601899,117.06919
252,China,"Xingyi, Guizhou, China",7,25.0919199,104.8955299
253,China,"Sanmenxia, Henan, China",7,34.7727068,111.2000526
254,China,"Anqing, Anhui, China",7,30.5429399,117.06354
255,China,"Jinzhou, Liaoning, China",7,41.0951499,121.12703
256,China,"Mangshi, Yunnan, China",7,24.4337899,98.58815
257,China,"Dazhou, Sichuan, China",7,31.2086399,107.46791
258,China,"Taihe, Anhui, China",7,33.5416899,115.47472
259,China,"Qingyang, Gansu, China",7,35.7097799,107.64292
260,China,"Benxi, Liaoning, China",7,41.2941299,123.7668599
261,China,"Leshan, Sichuan, China",7,29.5522099,103.76539
262,China,"Yichun, Jiangxi, China",7,27.8144299,114.41612
263,China,"Aba, Sichuan, China",6,31.8993999,102.22477
264,China,"Yongzhou, Hunan, China",6,26.4203399,111.61225
265,China,"Bozhou, Anhui, China",6,33.8446099,115.77931
266,China,"Yuanmou, Yunnan, China",6,25.7043599,101.87449
267,China,"Quzhou, Zhejiang, China",6,28.9359199,118.87419
268,China,"Bayinbuluk, China",6,35.86166,104.195397
269,China,"Wenling, Zhejiang, China",6,28.3717999,121.38599
270,China,"Wufeng, Hubei, China",6,30.1998299,110.67452
271,China,"Fuan, Fujian, China",6,27.0879699,119.64768
272,China,"Juancheng, Shandong, China",6,35.5336536,115.5445808
273,China,"Suining, Sichuan, China",6,30.5328599,105.59273
274,China,"Huangnan, Qinghai, China",6,35.5199099,102.01507
275,China,"Duyun, Guizhou, China",6,26.2597899,107.51867
276,China,"Wuyi, Zhejiang, China",6,28.8925999,119.81651
277,China,"Hotan, Xinjiang, China",6,37.11430989999999,79.92246999999999
278,China,"Zhaotong, Yunnan, China",6,27.3381699,103.7168
279,China,"Shangri La, Yunnan, China",6,27.8425399,99.74317
280,China,"Lankao, Henan, China",5,34.9677799,115.028
281,China,"Qingzhou, Shandong, China",5,36.6845599,118.4796599
282,China,"Korla, Xinjiang, China",5,41.7264299,86.1736899
283,China,"Tieling, Liaoning, China",5,42.2861999,123.84241
284,China,"Hezhou, Guangxi, China",5,24.4034599,111.56655
285,China,"Fuqing, Fujian, China",5,25.7202399,119.38411
286,China,"Suzhou, Anhui, China",5,33.6461399,116.96391
287,China,"Yueyang, Hunan, China",5,29.3572799,113.12919
288,China,"Shanshan, Xinjiang, China",5,42.8688699,90.21341
289,China,"Yulin, Guangxi, China",5,22.6545099,110.18098
290,China,"Qishan, Shaanxi, China",5,34.4434599,107.62101
291,China,"Chongzuo, China",5,22.3789499,107.36485
292,China,"Jiangmen, Guangdong, China",5,22.5786499,113.08161
293,China,"Cangzhou, Hebei, China",5,38.3044099,116.83869
294,China,"Yiwu, Zhejiang, China",5,29.30557989999999,120.0746799
295,China,"Shennongjia, Hubei, China",5,31.7445199,110.67598
296,China,"Nujiang, Yunnan, China",4,25.8176299,98.8567
297,China,"Donge, Shandong, China",4,36.33502989999999,116.24773
298,China,"Xianning, Hubei, China",4,29.8412599,114.32245
299,China,"Feicheng, Shandong, China",4,36.1824499,116.76917
300,China,"Guangyuan, Sichuan, China",4,32.4354899,105.84357
301,China,"Pingyi, Shandong, China",4,35.5058699,117.64048
302,China,"Ulanqab, China",4,40.9948599,113.13201
303,China,"Karamay, Xinjiang, China",4,45.5799899,84.88927
304,China,"Fenghua, Zhejiang, China",4,29.6550299,121.40686
305,China,"Hebei, Baoding, China",4,38.82023,114.23093
306,China,"Ruili, Yunnan, China",4,24.0127799,97.85189
307,China,"Anshun, Guizhou, China",4,26.2536699,105.9462
308,China,"Foping, Shaanxi, China",3,33.5244899,107.9905
309,China,"Beijing, Anhui, China",3,30.95231,117.8164
310,China,"Rugao, China",3,32.3715999,120.57382
311,China,"Hejian, Hebei, China",3,38.4454799,116.099
312,China,"Qinzhou, Guangxi, China",3,21.9796999,108.65431
313,China,"Lingshui Cty, Hainan, China",3,18.5059599,110.0372
314,China,"Daan, Jilin, China",3,45.5071099,124.29252
315,China,"Yakeshi, Inner Mongolia, China",3,49.2856299,120.71174
316,China,"Yang Ling, Shanxi, China",3,35.97571,112.44471
317,China,"Pingxiang, Guangxi, China",3,22.0943899,106.76649
318,China,"Jiagedaqi, Heilongjiang, China",3,50.4208247,124.1367269
319,China,"Maqu, Gansu, China",3,33.6786199,101.56325
320,China,"Changji, Xinjiang, China",3,44.0111699,87.30822
321,China,"Ningxia, Zhongning Count, China",3,37.4915699,105.68518
322,China,"Haining, Zhejiang, China",3,30.5093799,120.68102
323,China,"Huanglong, Sichuan, China",3,32.78239,103.90933
324,China,"Fuding, Fujian, China",3,27.3743836,120.215832
325,China,"Puyang, Henan, China",3,35.7618899,115.02932
326,China,"Libo, Guizhou, China",3,25.4114399,107.88725
327,China,"Tengzhou, Shandong, China",3,35.084021,117.164388
328,China,"Wenchangjie Dongduan, Zhoukou, China",3,22.91343,114.03244
329,China,"Huainan, Anhui, China",3,32.6254899,116.9998
330,China,"Rongcheng, Shandong, China",3,37.1652299,122.48628
331,China,"Rushan, Shandong, China",3,36.9202099,121.5402
332,China,"Ruoergai, Sichuan, China",3,33.55324,102.99529
333,China,"Jingzhou, Hunan, China",3,26.5751399,109.69627
334,China,"Ninghai, Zhejiang, China",3,29.2880699,121.4296099
335,China,"Zhuanglang, Gansu, China",3,35.2023899,106.03666
336,China,"Beihai, Guangxi, China",3,21.4811199,109.12008
337,China,"Ganzhou, Xinfeng County, China",2,25.3861699,114.92285
338,China,"Taihu, Jiangsu, China",2,31.2579515,120.2051096
339,China,"Zhangbei Cty, Hebei, China",2,41.1586199,114.71987
340,China,"Yangxi, Guangdong, China",2,21.7522899,111.61791
341,China,"Luan, Anhui, China",2,31.7348799,116.5232399
342,China,"Panan, Zhejiang, China",2,29.0540299,120.4502199
343,China,"Xinxing, Guangdong, China",2,22.6957299,112.22536
344,China,"Tieshangang, Guangxi, China",2,21.5290899,109.4216
345,China,"Yueqing, Zhejiang, China",2,28.1128899,120.9833799
346,China,"Tumuji Town, Inner Mongolia, China",2,46.288128,123.018574
347,China,"Taicang, Jiangsu, China",2,31.54987989999999,121.25804
348,China,"Meihekou, Jilin, China",2,42.5387299,125.7121
349,China,"Jianyang, Sichuan, China",2,30.4113299,104.54733
350,China,"Huaxi, Guizhou, China",2,26.4098499,106.67034
351,China,"Jingyu, Jilin, China",2,42.383271,126.808037
352,China,"Bayannur, China",2,40.7431699,107.38773
353,China,"Aksu, Xinjiang, China",2,41.1676299,80.26338
354,China,"Wudu, Gansu, China",2,33.3918899,104.92667
355,China,"Heyang, Shaanxi, China",2,35.2375199,110.14928
356,China,"Wuzhou, Guangxi, China",2,23.4769099,111.27917
357,China,"Laibin, Guangxi, China",2,23.7520999,109.22238
358,China,"Erdaobaihe, Jilin, China",2,42.457411,128.144136
359,China,"Qionglai, China",2,30.2412799,103.23383
360,China,"Lianhua, Jiangxi, China",2,27.1276099,113.96123
361,China,"Kuandian, Liaoning, China",2,40.7313099,124.78366
362,China,"Hechi, China",2,24.6929099,108.0854
363,China,"Shizuishan, Ningxia, China",2,38.9840999,106.38418
364,China,"Nanping, Fujian, China",2,26.6414099,118.17792
365,China,"Xinzheng, Henan, China",2,34.3960499,113.74161
366,China,"Jiayuguan, Gansu, China",2,39.7713799,98.28708
367,China,"Shenmu, China",2,38.8423712,110.4989648
368,China,"Fushun, Sichuan, China",2,29.1802099,104.97512
369,China,"Wudalianchi, Heilongjiang, China",2,48.5164899,126.20451
370,China,"Nanxiong, Guangdong, China",2,25.1196199,114.31084
371,China,"Zhaoyuan, Shandong, China",2,37.3553099,120.43421
372,China,"Chunan, Zhejiang, China",2,29.6088599,119.04207
373,China,"Kunshan, Jiangsu, China",2,31.1823199,121.00715
374,China,"Changyi, Shandong, China",2,36.8588399,119.39862
375,China,"Jinning, Yunnan, China",2,24.6698199,102.59559
376,China,"Chenggu, Shaanxi, China",1,33.1566499,107.33372
377,China,"Jiande, Zhejiang, China",1,29.4747499,119.28121
378,China,"Lhari, Nagchu, China",1,30.6408699,93.23236
379,China,"Dali, Shaanxi, China",1,34.7956039,109.9420041
380,China,"Ningjin, China",1,37.6522099,116.80023
381,China,"Xiaochang, Hubei, China",1,31.25802989999999,113.99802
382,China,"Shunde, Guangdong, China",1,22.8053704,113.293215
383,China,"Xichuan, Henan, China",1,33.1381499,111.49078
384,China,"Jiangshan, Zhejiang, China",1,28.7372499,118.6269
385,China,"Hulin, Heilongjiang, China",1,45.7626699,132.93695
386,China,"Guangling, Shanxi, China",1,39.7604699,114.06382
387,China,"Anqiu, Shandong, China",1,36.4784199,119.21784
388,China,"Fenyang, Shanxi, China",1,37.2654199,111.78777
389,China,"Xinyi, Guangdong, China",1,22.3542899,110.9471
390,China,"Huocheng, Xinjiang, China",1,44.0559899,80.87899
391,China,"Huanren, China",1,41.273153,125.361759
392,China,"Ganzi, Sichuan, China",1,30.04932419999999,101.9625302
393,China,"Jilin City, Jiaohe, China",1,43.72392989999999,127.34477
394,China,"Jinping, Yunnan, China",1,22.7796599,103.22648
395,China,"Jinggangshan, Jiangxi, China",1,26.7480799,114.28953
396,China,"Zouping, Shandong, China",1,36.8629899,117.74309
397,China,"Zhangshu, Jiangxi, China",1,28.0558899,115.54615
398,China,"Pizhou, Jiangsu, China",1,34.3351999,118.01246
399,China,"Baoting, Hainan, China",1,18.6390499,109.70259
400,China,"Ninger, Yunnan, China",1,23.0616699,101.04539
401,China,"Yangchun, Guangdong, China",1,22.1702999,111.79153
402,China,"Wenchuan, Sichuan, China",1,31.4768599,103.5903
403,China,"Weining, Guizhou, China",1,26.8564099,104.27872
404,China,"Shayang, Hubei, China",1,30.7091799,112.58854
405,China,"Lipu, Guangxi, China",1,24.4888699,110.39517
406,China,"Tumushuke, China",1,39.86494990000001,79.06902
407,China,"Shanghai, Jiangsu, China",1,33.5476699,118.76365
408,China,"Beijing, Jiangxi, China",1,28.2932,116.78207
409,China,"Beijing, Jiangsu, China",1,34.29469,118.35336
410,China,"Gangu, Gansu, China",1,34.7319999,105.33564
411,China,"Dangshan, Anhui, China",1,34.5605699,116.3356299
412,China,"Muchuan, Sichuan, China",1,28.9567299,103.90241
413,China,"Luochuan, Shaanxi, China",1,35.7618999,109.43238
414,China,"Raoping, Guangdong, China",1,23.6641199,117.0039
415,China,"Zhucheng, Shandong, China",1,35.9958299,119.4098299
416,China,"Huarong, Hunan, China",1,29.5301499,112.53946
417,China,"Jingde, Anhui, China",1,30.3735099,118.52657
418,China,"Danyang, Jiangsu, China",1,32.0094499,119.60694
419,China,"Dexing, Jiangxi, China",1,29.0925999,118.0207
420,China,"Leye, Guangxi, China",1,24.7858299,106.5616299
421,China,"Dongtai, Jiangsu, China",1,32.8669499,120.3205
422,China,"Haimen, Jiangsu, China",1,31.87164989999999,121.18179
423,China,"Fuzhou, Jiangxi, China",1,27.9478099,116.35809
424,China,"Mile, Yunnan, China",1,24.4105899,103.41499
425,China,"Aojiang, Pingyang County, China",1,27.593109,120.55855
426,China,"Camellia Garden, Tengchong, China",1,25.01929,98.48752
427,China,"Mianyang, Pingwu County, China",1,32.4085799,104.52904
428,China,"Dangyang Cty, Hubei, China",1,30.8211799,111.78833
429,China,"Beijing, Hebei, China",1,39.819764,115.938396
430,China,"Jieshou, Anhui, China",1,33.2572199,115.3743599
431,China,"Linquan, Anhui, China",1,32.9819599,114.9164199
432,China,"Shunchang, Fujian, China",1,26.7930099,117.81036
433,China,"Mianzhu, China",1,31.3377599,104.22083
434,China,"Suiling, Heilongjiang, China",1,47.2360899,127.11478
435,China,"Longquan, Zhejiang, China",1,28.0743399,119.14168
436,China,"Huaning, Yunnan, China",1,24.1933999,102.92849
437,China,"Xinping, Yunnan, China",1,24.0699999,101.99014
438,China,"Anyue, Sichuan, China",1,30.09732989999999,105.33537
439,China,"Yilong, Sichuan, China",1,31.2699799,106.3032999
440,China,"Anji, Zhejiang, China",1,30.6382399,119.68219
441,China,"Jingong Town, Huaining, China",1,30.76635,116.860671
442,China,"Taishan, Guangdong, China",1,22.2515599,112.7939
443,China,"Linshu, Shandong, China",1,34.9198499,118.65063
444,China,"Duolun, Inner Mongolia, China",1,42.2030299,116.4857099
445,China,"Chuzhou, Anhui, China",1,32.25342500000001,118.328321
446,China,"Yi, Hebei, China",1,39.34925990000001,115.49846
447,China,"Leiyang, Shandong, China",1,26.4224299,112.85988
448,China,"Yicheng, Hubei, China",1,31.7197599,112.25776
449,China,"Pengzhou, Sichuan, China",1,30.9477293,104.1317198
450,China,"Langao, Shaanxi, China",1,32.3071499,108.90222
451,China,"Yangjiang, Guangdong, China",1,21.8582899,111.98256
452,China,"Dunhua, Jilin, China",1,43.3727799,128.23109
453,China,"Zhengjiaba, Hanzhong, China",1,32.835507,106.565812
454,China,"Tanghai, Hebei, China",1,39.2731299,118.46023
455,China,"Shibing, Guizhou, China",1,27.0332699,108.12413
456,China,"Ledong, Hainan, China",1,18.7498599,109.17361
457,China,"Jiaocheng, Lishi, China",1,37.5176099,111.15081
458,China,"Guangxi Dongmen Forest F, Guangxi Zhuang, China",1,25.36832,109.44748
459,China,"Juxian, Shandong, China",1,35.5799699,118.83687
460,China,"Delingha, China",1,37.3694699,97.36087
461,China,"Suichang, Zhejiang, China",1,28.5921299,119.27602
462,China,"Yuncheng, Shandong, China",1,35.5998399,115.94364
463,China,"Changde, Hunan, China",1,29.0315799,111.69854
464,China,"Longnan, Li County, China",1,34.1890699,105.17844
465,China,"Shuiqi, Guangdong, China",1,24.25044,115.35261
466,China,"Laizhou, Shandong, China",1,37.1770199,119.94222
467,China,"Kuche, Xinjiang, China",1,41.7173737,82.9621102
468,China,"Gaocheng, Hebei, China",1,38.0216599,114.84676
